都道府県コード又は市町村コード,No,都道府県名,市区町村名,事業所名,事業所名カナ,サービスの種類,住所,方書（ビル名等）,緯度,経度,電話番号,FAX番号,法人番号,法人の名称,事業所番号,利用可能曜日,利用可能曜日特記事項,定員,URL,高齢者の方と障害者の方が同時一体的に利用できるサービス,介護保険サービスの指定状況,障害福祉サービスの指定状況,備考
012289,0177400355,北海道,深川市,ケアハウスアニスティ深川　特定施設入居者生活介護事業所,ケアハウスアニスティフカガワ　トクテイシセツニュウキョシャセイカツカイゴジギョウショ,特定施設入居者生活介護（軽費老人ホーム（外部サービス利用型））,北海道深川市２条４番３号ケアハウス　アニスティ深川,ケアハウス　アニスティ深川,43.718021500000000,142.035270500000020,0164-26-0051,0164-23-0032,1450005001591,社会福祉法人　北海道中央病院,0177400355,,,50,http://mypage.fukanavi.com/central/index.html,,,,
015466,0175300763,北海道,清里町,ケアハウスきよさと,ケアハウスキヨサト,特定施設入居者生活介護（軽費老人ホーム（外部サービス利用型））,北海道斜里郡清里町羽衣町３５番地３４,,43.831371999999990,144.594745500000040,0152-25-3588,0152-25-3877,,社会福祉法人清里町社会福祉協議会,0175300763,,,0,http://www.protech-web.co.jp/homepage/kiyosato-shakyo/,,,,
122025,1270700881,千葉県,銚子市,ケアハウス第２かすが苑,ケアハウスダイニカスガエン,特定施設入居者生活介護（軽費老人ホーム（外部サービス利用型））,千葉県銚子市春日町１９４７－３,,35.720262900000000,140.816597499999940,0479-25-2433,0479-22-2314,3040005012430,社会福祉法人讃寿会,1270700881,,,0,https://kasuga-en.jp/,,,,
205419,2073200251,長野県,小布施町,外部サービス利用型特定施設入居者生活介護ケアハウス山翠楼,ガイブサービスリヨウガタトクテイシセツニュウキョシャセイカツカイゴケアハウスサンスイロウ,特定施設入居者生活介護（軽費老人ホーム（外部サービス利用型））,上高井郡小布施町大字小布施10-20,,36.695200800000000,138.321594799999960,026-247-7288,026-247-7283,,社会福祉法人博悠会,2073200251,,,,http://www.hakuyukai.com,,,,
282154,2872301268,兵庫県,三木市,志染愛真ホーム,シジミアイシンホーム,特定施設入居者生活介護（軽費老人ホーム（外部サービス利用型））,兵庫県三木市志染町御坂764-16,,34.795935900000000,135.057643500000040,0794-87-3608,0794-87-3625,,社会福祉法人信倭会,2872301268,,,0,http://shijimiaishin.sakura.ne.jp,,,,
382019,3870106220,愛媛県,松山市,ケアハウスアテーナ,ケアハウス　アテーナ,特定施設入居者生活介護（軽費老人ホーム（外部サービス利用型））,松山市保免中三丁目3-23,,33.814482000000000,132.745952499999930,089-905-6622,089-905-6511,1500005002056,社会福祉法人　アテーナ会,3870106220,,,0,http://www.ate-na.jp,,,,
