都道府県コード又は市町村コード,No,都道府県名,市区町村名,事業所名,事業所名カナ,サービスの種類,住所,方書（ビル名等）,緯度,経度,電話番号,FAX番号,法人番号,法人の名称,事業所番号,利用可能曜日,利用可能曜日特記事項,定員,URL,高齢者の方と障害者の方が同時一体的に利用できるサービス,介護保険サービスの指定状況,障害福祉サービスの指定状況,備考
012025,0191400027,北海道,函館市,介護付き有料老人ホーム　かめだ,カイゴツキユウリョウロウジンホウム　カメダ,地域密着型特定施設入居者生活介護（有料老人ホーム）,函館市亀田町３番１３号,,41.791852400000000,140.734145200000060,0138-41-5018,0138-41-2228,,有限会社　萬代,0191400027,,,29,http://www.fukase.or.jp/bandai/kameda/index.html,,,,
012025,0191400274,北海道,函館市,介護付有料老人ホームゆう,カイゴツキユウリョウロウジンホームユウ,地域密着型特定施設入居者生活介護（有料老人ホーム）,函館市桔梗1丁目6番1号,1号,41.833335097871775,140.730304058860840,0138-47-6161,0138-47-7887,7440005001257,社会福祉法人七飯有隣会,0191400274,,,29,http://www.nanaeyurinkai.or.jp/,,,,
012025,0191401157,北海道,函館市,介護付き有料老人ホーム白ゆり乃木,カイゴツキユウリョウロウジンホームシラユリノギ,地域密着型特定施設入居者生活介護（有料老人ホーム）,北海道函館市乃木町4番53号,,41.782327600000000,140.763832099999940,0138-30-3231,0138-30-3230,,株式会社メディカルシャトー函館,0191401157,,,29,http://www.shirayuri.gr.jp/,,,,
012025,0191401082,北海道,函館市,介護付有料老人ホーム　カーサ石川,カイゴツキユウリョウロウジンホーム　カーサイシカワ,地域密着型特定施設入居者生活介護（有料老人ホーム）,北海道函館市石川町464番地1,,41.834561349810270,140.743721019712900,0138-47-8000,0138-47-5887,8440001008478,株式会社ベーネ函館,0191401082,,,0,,,,,
012203,0193200128,北海道,士別市,介護付有料老人ホームあじさい,カイゴツキユウリョウロウジンホームアジサイ,地域密着型特定施設入居者生活介護（有料老人ホーム）,北海道士別市東6条5丁目1番地総合福祉センターさんあい,総合福祉センターさんあい,44.177432103504280,142.400164765606630,0165-22-3966,0165-22-3986,6450005002404,医療法人社団三愛会,0193200128,,,0,http://sanai-kai.or.jp/index.html,,,,
012025,0191400209,北海道,函館市,社会福祉法人函館大庚会　介護付有料老人ホームこん,シャカイフクシホウジンハコダテタイコウカイ　カイゴツキユウリョウロウジンホームコン,地域密着型特定施設入居者生活介護（有料老人ホーム）,函館市本町２９番７号,,41.786972899999990,140.754438299999950,0138-33-0777,0138-55-5534,,社会福祉法人函館大庚会,0191400209,,,29,http://www.kon-jp.com/hakodate_taikoukai/,,,,
012025,0191400654,北海道,函館市,介護付有料老人ホームあい日吉,カイゴツキユウリョウロウジンホームアイヒヨシ,地域密着型特定施設入居者生活介護（有料老人ホーム）,北海道函館市日吉町2丁目22-12,,41.796167900000010,140.792883200000000,0138-30-7355,0138-30-7022,,社会福祉法人心侑会,0191400654,,,29,http://ai-sinyukai.com,,,,
012025,0191400803,北海道,函館市,グッドタイムホーム・松風,グッドタイムホームマツカゼ,地域密着型特定施設入居者生活介護（有料老人ホーム）,北海道函館市松風町13番15号グッドタイムホーム・松風,グッドタイムホーム・松風,41.770836100000000,140.734109399999960,0138-27-1800,0138-27-1810,,株式会社創生事業団,0191400803,,,0,http://www.goodtimehome-north.com,,,,
012025,0191401132,北海道,函館市,介護付有料老人ホーム光風園,カイゴツキユウリョウロウジンホームコウフウエン,地域密着型特定施設入居者生活介護（有料老人ホーム）,北海道函館市宮前町11番8号,,41.788419741888276,140.734852002631980,0138-83-7513,0138-44-1501,1440005000231,医療法人鴻仁会,0191401132,,,29,http://www.fukase.or.jp/,,,,
012025,0191401272,北海道,函館市,有料老人ホーム　フルールハピネスみなと,ユウリョウロウジンホーム　フルールハピネスミナト,地域密着型特定施設入居者生活介護（有料老人ホーム）,北海道函館市港町3丁目4番2号株式会社　萌福祉サービス,株式会社　萌福祉サービス,41.811152600000000,140.717719400000000,0138-43-0033,0138-41-3101,3450001009224,株式会社　萌福祉サービス,0191401272,,,,http://moe-fukushi.com,,,,
012025,0191400662,北海道,函館市,介護付有料老人ホームあい美原,カイゴツキユウリョウロウジンホームアイミハラ,地域密着型特定施設入居者生活介護（有料老人ホーム）,北海道函館市美原3丁目13番32号,,41.818678000000006,140.752307500000030,0138-83-6165,0138-83-6168,,社会福祉法人心侑会,0191400662,,,29,http://ai-shinyukai.com/,,,,
012025,0191400399,北海道,函館市,介護付有料老人ホームこうじゅ,カイゴツキユウリョウロウジンホームコウジュ,地域密着型特定施設入居者生活介護（有料老人ホーム）,北海道函館市亀田町7-1ケアステーションこうじゅ,ケアステーションこうじゅ,41.792263500000000,140.734306200000000,0138-41-5100,0138-41-5109,7440005000382,社会福祉法人　函館鴻寿会,0191400399,,,29,http://www5.ncv.ne.jp/~cs-kouju/,,,,
012106,0195700042,北海道,岩見沢市,さらさ岩見沢,サラサイワミザワ,地域密着型特定施設入居者生活介護（有料老人ホーム）,北海道岩見沢市北２条西６丁目12-3,,43.206542500000000,141.756284500000000,0126-33-3655,0126-33-3656,,一般社団法人日本地域福祉協会,0195700042,,,28,,,,,
012106,0195700067,北海道,岩見沢市,有限会社リアン　介護付有料老人ホームえみな幌向,ユウゲンガイシャリアン　カイゴツキユウリョウロウジンホームエミナホロムイ,地域密着型特定施設入居者生活介護（有料老人ホーム）,北海道岩見沢市幌向南３条３丁目２７０番地３０,,43.145346000000000,141.661400200000000,0126-32-6600,0126-32-6601,,有限会社リアン,0195700067,,,0,http://www.emina.co.jp,,,,
012122,0196400014,北海道,留萌市,有料老人ホームウイシュの家,ユウリョウロウジンホームウイシュノイエ,地域密着型特定施設入居者生活介護（有料老人ホーム）,留萌市見晴町2丁目１８,,43.934187700000000,141.648092200000060,0164-43-5553,0164-43-5553,9450005003341,特定非営利活動法人ウイシュ,0196400014,,,12,,,,,
012173,0191000348,北海道,江別市,介護付有料老人ホーム蓮音,カイゴツキユウリョウロウジンホームレノン,地域密着型特定施設入居者生活介護（有料老人ホーム）,北海道江別市緑ヶ丘24番地1,,43.082824100000000,141.533298200000000,011-375-6332,011-375-1530,7430005005861,医療法人社団藤花会,0191000348,,,,https://tokakaigroup.jp/renon/,,,,
016497,0194700043,北海道,浦幌町,グループリビン麦,グループリビンムギ,地域密着型特定施設入居者生活介護（有料老人ホーム）,北海道十勝郡浦幌町字住吉町54番地の5,,42.806233100000000,143.655849000000000,015-579-7327,015-579-7327,4460105001471,特定非営利活動法人オーディナリーサーヴァンツ,0194700043,,,10,,,,,
011045,0170503551,北海道,札幌市白石区,介護付有料老人ホーム　パートナーハウス,カイゴツキユウリョウロウジンホーム　パートナーハウス,地域密着型特定施設入居者生活介護（有料老人ホーム）,札幌市白石区平和通2丁目南6-28,,43.052217600000000,141.409613800000000,011-860-1701,011-860-1703,5430005005806,社会福祉法人パートナー,0170503551,,,15,http://www.partner.or.jp/,,,,
023035,0292000213,青森県,今別町,ぬくもり,ヌクモリ,地域密着型特定施設入居者生活介護（有料老人ホーム）,青森県東津軽郡今別町浜名字中宇田１番地３１,,41.181331580608045,140.469318992590400,0174-31-0037,0174-31-0038,,有限会社　津軽サポート,0292000213,,,0,tugarusaport-khhy.com,,,,
035076,0393100193,岩手県,洋野町,介護付有料老人ホーム和,カイゴツキユウリョウロウジンホームナゴミ,地域密着型特定施設入居者生活介護（有料老人ホーム）,岩手県九戸郡洋野町中野第５地割７５番地,,40.303878800000000,141.773057600000020,0194-68-5785,0194-68-5170,3400001008172,株式会社ハートフェルトケア,0393100193,,,0,,,,,
032026,0390200020,岩手県,宮古市,愛福祉会にいさと介護付有料老人ホーム,アイフクシカイニイサトカイゴツキユウリョウロウジンホーム,地域密着型特定施設入居者生活介護（有料老人ホーム）,岩手県宮古市刈屋第12地割3番地,,39.646052387941660,141.758639825131270,0193-72-2110,0193-72-2119,3400005004300,特定非営利活動法人愛福祉会,0390200020,,,21,,,,,
032069,0390600088,岩手県,北上市,介護付き有料老人ホーム　シルバーホームほっと東館,カイゴツキユウリョウロウジンホーム　シルバーホームホットアズマカン,地域密着型特定施設入居者生活介護（有料老人ホーム）,岩手県北上市和賀町岩崎1-114,,39.240585600000000,140.984980599999970,0197-73-7777,0197-73-8778,2400002010145,有限会社ほっと水神,0390600088,,,0,,,,,
042056,0470500547,宮城県,気仙沼市,土筆の里,ツクシノサト,地域密着型特定施設入居者生活介護（有料老人ホーム）,宮城県気仙沼市唐桑町小長根１７２－１,,38.890742600000000,141.658642200000000,０２２６－３１－２０３６,０２２６－３１－２１３３,,有限会社　笹陣,0470500547,,,8,,,,,
052124,0590800181,秋田県,大仙市,ケアホーム星宮,ケアホームホシノミヤ,地域密着型特定施設入居者生活介護（有料老人ホーム）,秋田県大仙市横掘字星宮６６番地３,,39.491609400000000,140.532578500000000,0187-69-3351,0187-69-3352,5410002012063,有限会社福寿,0590800181,,,16,https://www.fukuju-2910.com/,,,,
052159,0591200019,秋田県,仙北市,介護付有料老人ホームふれあいの家,カイゴツキユウリョウロウジンホームフレアイノイエ,地域密着型特定施設入居者生活介護（有料老人ホーム）,秋田県仙北市田沢湖卒田字荒町49-7,,39.622122300000000,140.620594999999980,0187-44-3877,0187-44-3877,3410001007900,株式会社大曲仙北介護支援事業所,0591200019,,,12,,,,,
052043,0590400271,秋田県,大館市,有料老人ホーム　ふれあいの里観音堂,ユウリョウロウジンホーム　フレアイノサトカンノンドウ,地域密着型特定施設入居者生活介護（有料老人ホーム）,秋田県大館市字観音堂388番地,,40.282170699999990,140.573042300000000,0186-59-6160,0186-59-6170,9410001006062,株式会社タクト,0590400271,,,23,http://kk-tact.com/,,,,
052124,0590800033,秋田県,大仙市,有料老人ホーム　太田ふくし苑,ユウリョウロウジンホーム　オオタフクシエン,地域密着型特定施設入居者生活介護（有料老人ホーム）,大仙市太田町横沢字久保関北７１６番地１,,39.511844200000000,140.598850999999970,0187-88-2339,0187-88-2338,9410001008158,株式会社　　　サイトー商会,0590800033,,,0,,,,,
052124,0590800025,秋田県,大仙市,ハートライフ,ハートライフ,地域密着型特定施設入居者生活介護（有料老人ホーム）,秋田県大仙市大曲日の出町１丁目４２－２２,,39.444080700000000,140.475928899999980,0187-66-3737,0187-66-3737,2410002012396,有限会社　鈴貴,0590800025,,,18,,,,,
052094,0590900049,秋田県,鹿角市,地域密着型特定施設入居者生活介護有料老人ホーム　北の郷,チイキミッチャクガタトクテイシセツニュウキョシャセイカツカイゴユウリョウロウジンホームキタノサト,地域密着型特定施設入居者生活介護（有料老人ホーム）,秋田県鹿角市十和田大湯字前田29有料老人ホーム　北の郷,有料老人ホーム　北の郷,40.273075800000000,140.793888800000000,0186-30-3511,0186-35-3888,8410005003437,医療法人寿光会,0590900049,,,0,http://jyukoukai.com,,,,
054348,0592600027,秋田県,美郷町,すみれ荘,スミレソウ,地域密着型特定施設入居者生活介護（有料老人ホーム）,秋田県仙北郡美郷町本堂城回字若林１２２番地２,,39.472543100000000,140.588900600000000,0187-87-6215,0187-87-6216,4410002012031,有限会社さくらヘルパーセンター,0592600027,,,,,,,,
054348,0592600100,秋田県,美郷町,地域密着型特定施設入居者生活介護　ひらきの郷,チイキミッチャクガタトクテイシセツニュウキョシャセイカツカイゴ　ヒラキノサト,地域密着型特定施設入居者生活介護（有料老人ホーム）,秋田県仙北郡美郷町境田字下八百刈265,,39.402171600000000,140.517939000000070,0187-82-1165,0187-82-1991,4410002011685,株式会社ツインズ,0592600100,,,24,,,,,
072036,0790300677,福島県,郡山市,スマイルステージ五百渕,スマイルステージゴヒャクブチ,地域密着型特定施設入居者生活介護（有料老人ホーム）,福島県郡山市字名倉16-1,,37.377234500000036,140.363856299999950,024-953-8401,024-953-8402,,株式会社　アルコップ,0790300677,,,29,http://www.enjyu-g.com/,,,,
072044,0790400485,福島県,いわき市,介護付有料老人ホーム　月のうさぎ,カイゴツキユウリョウロウジンホームツキノウサギ,地域密着型特定施設入居者生活介護（有料老人ホーム）,福島県いわき市郷ヶ丘2-17-26,,37.027316200000000,140.905101100000000,0246-29-5531,0246-46-2503,,ゆうげんがいしゃ　けあーねっと・どばし,0790400485,,,,http://care-net.biz/07/k-dobashi,,,,
072036,0790300792,福島県,郡山市,介護付有料老人ホーム　縁,カイゴツキユウリョウロウジンホーム　エニシ,地域密着型特定施設入居者生活介護（有料老人ホーム）,富田東６丁目95,,37.422515900000000,140.375242800000020,024-983-6561,,2380005002786,医療法人　むつき会,0790300792,,,0,enishimegumi@yahoo.co.jp,,,,
072044,0790400550,福島県,いわき市,介護の森　きたしらど,カイゴノモリ　キタシラド,地域密着型特定施設入居者生活介護（有料老人ホーム）,福島県いわき市平北白土字ネキ内４９番地の１、５０番地の１,,37.051044800000000,140.916879500000000,０２４６－２１－４７５７,０２４６－２１－４７５７,,有限会社　いわきケアフォレスト,0790400550,,,,https://iwaki-careforest.com/,,,,
072087,0790800031,福島県,喜多方市,介護付有料老人ホーム　ベルハウス塩川,カイゴツキユウリョウロウジンホウム　ベルハウスシオカワ,地域密着型特定施設入居者生活介護（有料老人ホーム）,福島県喜多方市塩川町御殿場三丁目36,,37.595598500000000,139.883091600000000,0241-27-5321,0241-27-5331,1380001018234,株式会社ヴェルリンク,0790800031,,,,https://vellink.jp,,,,
072087,0790800049,福島県,喜多方市,きらりの家,キラリノイエ,地域密着型特定施設入居者生活介護（有料老人ホーム）,福島県喜多方市字台3581-13,,37.650530400000000,139.887423800000000,0241-23-2380,0241-23-2380,,株式会社　ＳＥＩ喜羅里,0790800049,,,18,http//www.seikirari.com,,,,
082198,0891900011,茨城県,牛久市,牛久コスモス園,ウシクコスモスエン,地域密着型特定施設入居者生活介護（有料老人ホーム）,茨城県牛久市小坂町3388-1,,35.971446200000000,140.196802299999940,029-830-8861,029-830-8863,,社会福祉法人　　若竹会,0891900011,,,,info@wakatake-kai.or.jp,,,,
082198,0891900078,茨城県,牛久市,介護付き　有料老人ホーム　柏田ヒルズ,カイゴツキ　ユウリョウロウジンホーム　カシワダヒルズ,地域密着型特定施設入居者生活介護（有料老人ホーム）,茨城県牛久市上柏田４丁目５３番地１０,,35.982730300000000,140.159364200000030,029-872-8135,029-830-7744,2050005008998,社会医療法人若竹会,0891900078,,,12,http://www.centralweb.sakura.ne.jp,,,,
102059,1090500263,群馬県,太田市,介護付有料老人ホーム　コスモス細谷,カイゴツキユウリョウロウジンホーム　コスモスホソヤ,地域密着型特定施設入居者生活介護（有料老人ホーム）,群馬県太田市細谷町１３４３－１,,36.276617900000000,139.348803600000000,0276-55-1701,0276-55-1704,,株式会社　ケア・コスモス,1090500263,,,0,http://carecosmos.co.jp,,,,
102059,1090500156,群馬県,太田市,介護付有料老人ホーム　ふる里,カイゴツキユウリョウロウジンホーム　フルサト,地域密着型特定施設入居者生活介護（有料老人ホーム）,群馬県　太田市　只上町　1319-6,,36.334012200000000,139.399934900000060,0276-37-8899,0276-37-9004,4070001001020,群馬郵便逓送　株式会社,1090500156,,,21,http://guntei.co.jp,,,,
112011,1190400182,埼玉県,川越市,ミモザ川越,ミモザカワゴエ,地域密着型特定施設入居者生活介護（有料老人ホーム）,埼玉県川越市大字的場2464番地2,,35.920366500000000,139.442122499999980,049-298-6922,049-298-6932,7010701015090,ミモザ株式会社,1190400182,,,0,http://www.mimoza-care.jp,,,,
112038,1192000048,埼玉県,川口市,まごころホーム三ツ和,マゴコロホームミツワ,地域密着型特定施設入居者生活介護（有料老人ホーム）,埼玉県川口市坂下町4-15-4,,35.826151700000000,139.738024900000030,048-287-6865,048-284-5635,,医療法人　あかつき会,1192000048,,,20,http//hatogaya-hp.or.jp,,,,
112011,1190400299,埼玉県,川越市,高齢者福祉施設　すまいる小江戸,コウレイシャフクシシセツスマイルコエド,地域密着型特定施設入居者生活介護（有料老人ホーム）,埼玉県川越市下老袋742-1高齢者福祉施設　すまいる小江戸,高齢者福祉施設　すまいる小江戸,35.937661200000015,139.532272499999980,049-227-0034,049-227-0074,3030001081777,シニアライフサポート株式会社,1190400299,,,16,https://www.royalk.jp/koedo/,,,,
111066,1196500340,埼玉県,さいたま市桜区,ミモザ浦和,ミモザウラワ,地域密着型特定施設入居者生活介護（有料老人ホーム）,埼玉県さいたま市桜区大字神田７１５番地,,35.875629400000000,139.608787700000000,０４８-８５１-２０３０,０４８-８５１-２０３１,7010701015090,ミモザ株式会社,1196500340,,,29,,,,,
122033,1290800307,千葉県,市川市,プレジールヴィラ市川　弐番館,プレジールヴィライチカワ　ニバンカン,地域密着型特定施設入居者生活介護（有料老人ホーム）,千葉県市川市須和田2-17-4,,35.737956000000000,139.912766400000000,047-300-7300,047-300-7301,,国分土地建物株式会社,1290800307,,,,http://www.plaisir-villa.jp/,,,,
122041,1290900693,千葉県,船橋市,介護付き有料老人ホームきゃろっと,カイゴツキユウリョウロウジンホームキャロット,地域密着型特定施設入居者生活介護（有料老人ホーム）,本町4-8-30,,35.700885100000010,139.991220699999980,047-774-3150,047-774-3151,8030005010463,医療法人社団協友会,1290900693,,,0,http://rc-funabashi.jp/,,,,
122386,1298600022,千葉県,いすみ市,ゆかり（愉花里）大原,ユカリ（ユカリ）オオハラ,地域密着型特定施設入居者生活介護（有料老人ホーム）,千葉県いすみ市大原8763-1,,35.252341800000000,140.389544600000020,0470-60-9577,0470-60-9578,,株式会社アングル,1298600022,,,0,http://www.yukari-gr.jp/wp/group/oohara/,,,,
122041,1290900453,千葉県,船橋市,有料老人ホームみさき,ユウリョウロウジンホームミサキ,地域密着型特定施設入居者生活介護（有料老人ホーム）,千葉県船橋市三咲4-23-15有料老人ホームみさき,有料老人ホームみさき,35.753961499999995,140.039576200000060,047-407-7780,047-407-7781,,医療法人社団　千葉光徳会,1290900453,,,0,,,,,
122033,1290800471,千葉県,市川市,アズハイム市川アネックス,アズハイムイチカワアネックス,地域密着型特定施設入居者生活介護（有料老人ホーム）,千葉県市川市須和田2丁目17番4号,,35.737703300000000,139.913288600000000,047-300-7300,047-300-7301,,株式会社アズパートナーズ,1290800471,,,,http://www.as-partners.co.jp/,,,,
122084,1291300323,千葉県,野田市,介護型サービス付き高齢者向け住宅なごみ中野台,カイゴガタサ-ビスツキコウレイシャムケジュウタクナゴミナカノダイ,地域密着型特定施設入居者生活介護（有料老人ホーム）,千葉県野田市中野台300,,35.947928556019455,139.855315830024720,04-7186-7805,04-7186-7806,,株式会社ライズ,1291300323,,,0,,,,,
122122,1291700027,千葉県,佐倉市,シャロームきこえ染井野,シャロームキコエソメイノ,地域密着型特定施設入居者生活介護（有料老人ホーム）,千葉県佐倉市染井野4-5-4,,35.716521805127520,140.192630248514200,043-460-5630,043-460-5631,7040002061245,有限会社ドリー夢,1291700027,,,0,http://www.shalom-kikoe.jp/,,,,
122327,1294200132,千葉県,白井市,リハモードホーム,リハモードホーム,地域密着型特定施設入居者生活介護（有料老人ホーム）,千葉県白井市根235-2リハモードヴィラ白井,リハモードヴィラ白井,35.774589300000000,140.039133600000000,047-497-1907,047-497-1925,,グリーンライフ東日本株式会社,1294200132,,,0,http://www.greenlife-inc.co.jp,,,,
122025,1290700077,千葉県,銚子市,地域密着型特定施設「みつばレジデンス」（介護付有料老人ホーム）,チイキミッチャクガタトクテイシセツ　「ミツバレジデンス」　（カイゴツキユウリョウロウジンホーム）,地域密着型特定施設入居者生活介護（有料老人ホーム）,千葉県銚子市豊里台1丁目1044番地の20,,35.788007500000000,140.708281800000000,0479-26-3400,0479-30-2110,3040001062297,銚子メディクス株式会社,1290700077,,,29,https://www.medycs.jp/,,,,
123293,1294400021,千葉県,栄町,ぱれっと,パレット,地域密着型特定施設入居者生活介護（有料老人ホーム）,千葉県印旛郡栄町安食2888,,35.836839500000000,140.235343300000070,0476-37-5611,0476-37-5663,,株式会社楽天堂,1294400021,,,0,https://rakutendo.net/,,,,
121053,1290500048,千葉県,千葉市緑区,ミモザおゆみ野,ミモザオユミノ,地域密着型特定施設入居者生活介護（有料老人ホーム）,千葉県千葉市緑区おゆみ野中央5-3-6,,35.558484200000000,140.170866599999950,043-291-8091,043-291-8093,,ミモザ株式会社,1290500048,,,29,http//www.mimoza-care.jp/,,,,
121011,1290100278,千葉県,千葉市中央区,アットホームケアセンター,アットホームケアセンター,地域密着型特定施設入居者生活介護（有料老人ホーム）,千葉県千葉市中央区仁戸名町７２１－１３,,35.587548000000000,140.158052600000020,043-312-7370,043-312-7370,,延寿グループ株式会社,1290100278,,,27,http://www.athomecare.co.jp/,,,,
131091,1390900049,東京都,品川区,ファミリアガーデン　品川,ファミリアガーデンシナガワ,地域密着型特定施設入居者生活介護（有料老人ホーム）,東京都品川区大崎３－２０－９,,35.617291600000000,139.723500200000000,03-5759-8186,03-5759-8187,,キヨタ・ライフケアサービス株式会社,1390900049,,,29,https://familiagarden-shinagawa.jp/,,,,
131113,1391100482,東京都,大田区,モナミ大田,モナミオオタ,地域密着型特定施設入居者生活介護（有料老人ホーム）,東京都大田区蒲田1－9－11,,35.566597700000000,139.720214200000000,03-3737-4828,03-3737-4828,5010802014126,株式会社　東京ライフケアサービス,1391100482,,,16,http://monami-ota.tokyo-lifecare.co.jp/,,,,
131199,1391900113,東京都,板橋区,医療法人社団健育会　ケアセンターけやき,イリョウホウジンシャダンケンイクカイ　ケアセンターケヤキ,地域密着型特定施設入居者生活介護（有料老人ホーム）,東京都板橋区桜川2-10-7,,35.758349100000000,139.679443399999970,03-5922-6322,03-3559-4712,6011405000058,医療法人社団健育会,1391900113,,,10,http://www.takekawa.gr.jp/keyaki/facilities/index.html,,,,
131237,1392300529,東京都,江戸川区,せらび篠崎,セラビシノザキ,地域密着型特定施設入居者生活介護（有料老人ホーム）,東京都江戸川区東篠崎1-5-2,,35.696284899999990,139.916200800000070,03-5666-6541,03-5666-6542,,株式会社日本ケアリンク,1392300529,,,0,http://www.j-carelink.com,,,,
132128,1393500150,東京都,日野市,サンスマイル日野,サンスマイルヒノ,地域密着型特定施設入居者生活介護（有料老人ホーム）,東京都日野市栄町4-22-3,,35.684280400000000,139.385950099999950,042-843-2868,042-843-2869,5010001146357,株式会社サンスマイル,1393500150,,,0,http://www.sunsmile39.com/about/index.html,,,,
142077,1492400179,神奈川県,茅ヶ崎市,スマイルコート円蔵,スマイルコートエンゾウ,地域密着型特定施設入居者生活介護（有料老人ホーム）,神奈川県茅ケ崎市円蔵2-7-6,,35.344591500000000,139.405188200000000,0467-50-1388,0467-50-3181,9040001021495,株式会社ケアネット徳洲会,1492400179,,,29,http://care-net.co.jp,,,,
142085,1472500063,神奈川県,逗子市,逗子パーク・ヴィラ,ズシパーク　・ゔィラ,地域密着型特定施設入居者生活介護（有料老人ホーム）,神奈川県逗子市小坪3-2-1,,35.300047200000000,139.560301900000000,0467-23-8600,0467-25-5037,3021001042539,逗子ヘルス・ケア株式会社,1472500063,,,23,http://www.health-care.co.jp/,,,,
142051,1492200413,神奈川県,藤沢市,花珠の家　ふじさわ,ハナダマノイエ　フジサワ,地域密着型特定施設入居者生活介護（有料老人ホーム）,神奈川県藤沢市菖蒲沢７９０,,35.401047300000000,139.442241700000070,0466-49-3287,0466-49-3288,2020001007809,株式会社日本アメニティライフ協会,1492200413,,,0,http://www.jala.co.jp/,,,,
142042,1492100316,神奈川県,鎌倉市,鎌倉ライフホームえん,カマクラライフホームエン,地域密着型特定施設入居者生活介護（有料老人ホーム）,神奈川県鎌倉市今泉3丁目18-6鎌倉乃えん,鎌倉乃えん,35.344389200000000,139.560908400000020,0467-41-1330,0467-41-1331,1021001005720,湘南乃えん株式会社,1492100316,,,28,http://shonannoen.com/,,,,
142034,1492000169,神奈川県,平塚市,悠悠みらい,ユウユウミライ,地域密着型特定施設入居者生活介護（有料老人ホーム）,神奈川県平塚市入野70,,35.352502600000000,139.319814899999980,0463-37-2801,0463-37-2811,9021002062308,株式会社ハートライフケア,1492000169,,,0,http://hlcare.net/,,,,
142034,1492000250,神奈川県,平塚市,ココファンメゾン四之宮,ココファンメゾンシノミヤ,地域密着型特定施設入居者生活介護（有料老人ホーム）,神奈川県平塚市四之宮1-3-66,,35.346964413275040,139.350039700000050,0463-25-5117,0463-25-5118,3010701020722,株式会社　学研ココファン,1492000250,,,18,http://www.cocofump.co.jp/,,,,
142051,1492200348,神奈川県,藤沢市,ミモザ湘南台新館,ミモザショウナンダイシンカン,地域密着型特定施設入居者生活介護（有料老人ホーム）,神奈川県藤沢市円行１－９－１３,,35.388030200000000,139.460157600000000,0466-42-1133,0466-42-1134,7010701015090,ミモザ株式会社,1492200348,,,29,https://www.mimoza-care.jp/base/syounandai-shinkan.html,,,,
142051,1492200603,神奈川県,藤沢市,ココファンメディカル藤沢,ココファンメディカルフジサワ,地域密着型特定施設入居者生活介護（有料老人ホーム）,神奈川県藤沢市本藤沢5－8－19,,35.358423400000010,139.469820199999960,0466-54-7631,0466-54-7632,3010701020722,株式会社学研ココファン,1492200603,,,28,http://www.cocofump.co.jp/,,,,
142051,1492200611,神奈川県,藤沢市,ココファンメゾン鵠沼,ココファンメゾンクゲヌマ,地域密着型特定施設入居者生活介護（有料老人ホーム）,神奈川県藤沢市本鵠沼４－２－５,,35.333989800000000,139.470554399999970,0466-90-4333,0466-90-4334,3010701020722,株式会社　学研ココファン,1492200611,,,29,http://www.cocofump.co.jp/facilities/detail/cm-kugenuma/,,,,
142051,1492200629,神奈川県,藤沢市,ココファンメゾン大庭,ココファンメゾンオオバ,地域密着型特定施設入居者生活介護（有料老人ホーム）,神奈川県藤沢市大庭5423-1ココファンメゾン大庭,ココファンメゾン大庭,35.363399600000000,139.451297599999970,0466-88-3151,0466-88-3152,3010701020722,株式会社　学研ココファン,1492200629,,,21,http://www.cocofump.co.jp/,,,,
142051,1492200850,神奈川県,藤沢市,藤沢ロマン館,フジサワロマンカン,地域密着型特定施設入居者生活介護（有料老人ホーム）,神奈川県藤沢市菖蒲沢538,,35.401191400000000,139.437361400000000,0466-49-1140,0466-49-1141,1021005000429,社会福祉法人　三つ葉会,1492200850,,,0,https://gardenia.or.jp/roman/,,,,
141101,1491000061,神奈川県,横浜市戸塚区,マリ・ド・ラ・パシオンの家,マリ・ド・ラ・パシオンノイエ,地域密着型特定施設入居者生活介護（有料老人ホーム）,神奈川県横浜市戸塚区原宿4-35-10,,35.375657500000000,139.499549000000000,045-858-3124,045-852-2132,6020002068169,有限会社マザー,1491000061,,,12,,,,,
152021,1590200208,新潟県,長岡市,介護付有料老人ホーム　アシスト高町,カイゴツキユウリョウロウジンホームアシストタカマチ,地域密着型特定施設入居者生活介護（有料老人ホーム）,長岡市高町2-59-363,,37.417021200000010,138.865265499999960,0258-39-6611,0258-39-6620,2110005011368,ながおか医療生活協同組合,1590200208,,,29,,,,,
152021,1590200513,新潟県,長岡市,介護付有料老人ホーム　おもしろ荘,カイゴツキユウリョウロウジンホーム　オモシロソウ,地域密着型特定施設入居者生活介護（有料老人ホーム）,新潟県長岡市北荷頃３４番地２,,37.460504400000000,138.984398899999970,0258-51-5185,0258-52-3145,4110001027969,奥越部品株式会社,1590200513,,,29,http://www.okuetsu-buhin.co.jp/care/,,,,
151017,1590100564,新潟県,新潟市北区,有料老人ホームくるみの杜,ユウリョウロウジンホームクルミノモリ,地域密着型特定施設入居者生活介護（有料老人ホーム）,新潟県新潟市北区葛塚３４８７番地,,37.923203800000000,139.219049000000040,025-278-7678,025-387-7220,4110001006881,株式会社大宝ランド・プロジェクト,1590100564,,,29,,,,,
192112,1991800010,山梨県,笛吹市,介護付有料老人ホーム　リブズ笛吹,カイゴツキユウリョウロウジンホーム　リブズフエフキ,地域密着型特定施設入居者生活介護（有料老人ホーム）,山梨県笛吹市御坂町成田2477-1,,35.642427400000000,138.642399599999980,055-261-2800,055-261-2801,,有限会社　本陣,1991800010,,,,http://www.ribs-fuefuki.jp/,,,,
192139,1992200020,山梨県,甲州市,介護付有料老人ホーム萩の里,カイゴツキユウリョウロウジンホームハギノサト,地域密着型特定施設入居者生活介護（有料老人ホーム）,山梨県甲州市塩山下小田原590-3,,35.729841000000000,138.768637000000000,0553-33-7742,0553-33-7746,,社会福祉法人　小田原福祉会,1992200020,,,,,,,,
192058,1990200048,山梨県,山梨市,ラ・ナシカ　やまなし,ラ・ナシカ　ヤマナシ,地域密着型特定施設入居者生活介護（有料老人ホーム）,山梨県山梨市小原西8-3,,35.692382800000000,138.689549800000000,0553-23-6080,0553-23-6081,,株式会社　シダー,1990200048,,,,http://www.cedar-web.com,,,,
192015,1990100230,山梨県,甲府市,ラ・ナシカこうふ,ラ・ナシカコウフ,地域密着型特定施設入居者生活介護（有料老人ホーム）,山梨県甲府市荒川1丁目3番26号,,35.674043000000000,138.540872200000000,055-255-6233,055-255-6236,3290801004110,株式会社　シダー,1990100230,,,,http://www.lanassica.jp/introduction/kofu/,,,,
202011,2090100138,長野県,長野市,やすら木の家とくま,ヤスラギノイエトクマ,地域密着型特定施設入居者生活介護（有料老人ホーム）,長野市大字徳間字中南555－2,,36.676805420518100,138.225422225825440,026-256-6133,026-263-1138,,株式会社フジミヤ,2090100138,,,29,http://fuji-miya.co.jp/care/,,,,
202011,2090100245,長野県,長野市,愛ランドまめじま,アイランドマメジマ,地域密着型特定施設入居者生活介護（有料老人ホーム）,長野市大字大豆島５２８０－１,,36.627612900000000,138.234851800000000,026-221-1199,026-285-0399,1100001006679,株式会社石田福祉サービス,2090100245,,,0,http://www.iland-ishida.jp/shisetsu.html,,,,
202029,2090200284,長野県,松本市,オーチャード開智『地域密着型』,オーチャードカイチチイキミッチャクガタ,地域密着型特定施設入居者生活介護（有料老人ホーム）,長野県松本市開智二丁目3-50,,36.241823600000000,137.970431400000050,0263-33-8221,0263-33-8225,7120001186010,オーチャードケア株式会社,2090200284,,,0,http://elysion-gr.com,,,,
202037,2090300472,長野県,上田市,地域密着型特定有料老人ホームまど花,チイキミッチャクガタトクテイユウリョウロウジンホームマドカ,地域密着型特定施設入居者生活介護（有料老人ホーム）,長野県上田市秋和1147-4,,36.417019369050340,138.229825793359900,0268-75-8902,0268-75-8903,8100000101802,地域密着型特定有料老人ホームまど花,2090300472,,,29,http://www.ma-do-ka.com/,,,,
202045,2090400181,長野県,岡谷市,おはな　和が家,オハナワガヤ,地域密着型特定施設入居者生活介護（有料老人ホーム）,長野県岡谷市山手町2-3-26,,36.065020500000000,138.042244600000000,0266-78-8481,0266-78-8482,,株式会社　和が家,2090400181,,,,,,,,
202185,2091800082,長野県,千曲市,サクラポート八幡,サクラポート　ヤワタ,地域密着型特定施設入居者生活介護（有料老人ホーム）,八幡1975番地,,36.520361538622710,138.097471191433000,026-272-2070,026-272-2078,4100001006445,メディカルケア株式会社,2091800082,,,29,http://www.sakura-care.co.jp,,,,
202011,2090100104,長野県,長野市,ことぶきの家若穂,コトブキノイエワカホ,地域密着型特定施設入居者生活介護（有料老人ホーム）,長野市若穂綿内８５３９－１,,36.621339300000000,138.256340400000000,026-282-7200,026-282-7205,,株式会社コトブキ,2090100104,,,0,http://www.kotobuki-group.jp/about/index.php,,,,
202011,2090100179,長野県,長野市,ケアライフ柳原,ケアライフヤナギハラ,地域密着型特定施設入居者生活介護（有料老人ホーム）,長野市大字小島７８５番地,,36.665610099999990,138.258494599999950,026-236-8200,026-236-8211,,エフビー介護サービス株式会社,2090100179,,,29,http://www.fb-kaigo.co.jp/,,,,
202011,2090100526,長野県,長野市,介護付有料老人ホームコスモスあもり,カイゴツキユウリョウロウジンホームコスモスアモリ,地域密着型特定施設入居者生活介護（有料老人ホーム）,長野県長野市安茂里伊勢宮１７８３番地１７,,36.635979028439976,138.172406446310450,026-267-8801,026-223-6620,,社会福祉法人ウエルフェアコスモス,2090100526,,,29,http://cosmosnet.or.jp,,,,
202011,2090100153,長野県,長野市,介護付有料老人ホームコスモスプラネット篠ノ井,カイゴツキユウリョウロウジンホームコスモスプラネットシノノイ,地域密着型特定施設入居者生活介護（有料老人ホーム）,長野市篠ノ井会６１８-２,,36.571297423653170,138.150595409956400,026-299-6716,026-299-6717,,株式会社コスモスプラネット,2090100153,,,29,http://www.cosmosnet.or.jp/planet.html,,,,
202011,2090100187,長野県,長野市,上松ホーム,ウエマツホーム,地域密着型特定施設入居者生活介護（有料老人ホーム）,長野市上松２丁目２０－８,,36.668772360734174,138.196989391401640,026-237-1660,026-237-1661,,社会福祉法人光仁会富竹の里,2090100187,,,0,http://tomitake-carenet.com/,,,,
202011,2090100252,長野県,長野市,地域密着型特定施設入居者生活介護「七瀬の杜」,チイキミッチャクガタトクテイシセツニュウキョシャセイカツカイゴ「ナナセノモリ」,地域密着型特定施設入居者生活介護（有料老人ホーム）,長野市鶴賀111-3「七瀬の杜」,「七瀬の杜」,36.652748700000000,138.189457700000050,026-268-1081,026-268-1082,,株式会社ライフケア,2090100252,,,29,http://www.lifecare-mayu.com/index.php,,,,
202011,2090100021,長野県,長野市,地域密着型特定施設　有料老人ホームインターコート藤,チイキミッチャクガタトクテイシセツユウリョウロウジンホームインターコートフジ,地域密着型特定施設入居者生活介護（有料老人ホーム）,長野市青木島町綱島７８０－１０,,36.611249579274160,138.206757688360540,026-284-8427,026-284-8428,8100001005039,株式会社インターコート藤,2090100021,,,20,https://intercourt-fuji.com/,,,,
202029,2090200367,長野県,松本市,まるのうちラクシア,マルノウチラクシア,地域密着型特定施設入居者生活介護（有料老人ホーム）,島内3579-1,,36.239275700000010,137.950161400000070,0263-87-0501,0263-87-0502,,社会医療法人　抱生会,2090200367,,,0,http://www.marunouchi.or.jp/at-home_care/rakushia/,,,,
202029,2090200227,長野県,松本市,ラ・ナシカまつもと,ラ・ナシカマツモト,地域密着型特定施設入居者生活介護（有料老人ホーム）,高宮中4-13,,36.211588400000000,137.958239400000020,0263-24-0650,0263-26-0651,3290801004110,株式会社シダー,2090200227,,,0,http://www.cedar-web.com,,,,
202029,2090200383,長野県,松本市,エフビー介護サービス株式会社有料老人ホームケアライフ笹賀,エフビーカイゴサービスカブシキガイシャユウリョウロウジンホームケアライフササガ,地域密着型特定施設入居者生活介護（有料老人ホーム）,長野県松本市野溝西2-10-22,,36.200516500000000,137.949746300000000,0263-87-1822,0263-87-1823,2100001007791,エフビー介護サービス株式会社,2090200383,,,29,http://www.fb-kaigo.co.jp,,,,
202037,2090300522,長野県,上田市,地域密着型特定有料老人ホーム仙寿の里こもれび,チイキミッチャクガタトクテイユウリョウロウジホームセンジュノサトコモレビ,地域密着型特定施設入居者生活介護（有料老人ホーム）,長瀬1724番地1,,36.346013900000000,138.289837000000000,0268-42-4165,0268-43-1310,9100001028393,株式会社シックスセンス,2090300522,,,,http://www.6sense.jp,,,,
202037,2090300217,長野県,上田市,地域密着型特定有料老人ホーム上田大手門,チイキミッチャクガタトクテイユウリョウロウジンホームウエダオオテモン,地域密着型特定施設入居者生活介護（有料老人ホーム）,上田市中央2-3-8複合型老人福祉施設上田大手門,複合型老人福祉施設上田大手門,36.401918756333790,138.251431829955350,0268-28-6657,0268-28-6658,,社会福祉法人大志会,2090300217,,,0,http://taishikai.or.jp/kaigo/sub10.html,,,,
202037,2090300399,長野県,上田市,地域密着型特定有料老人ホーム一期一会別所,チイキミッチャクガタトクテイユウリョウロウジンホームイチゴイチエベッショ,地域密着型特定施設入居者生活介護（有料老人ホーム）,長野県上田市別所温泉２１４,,36.349271500000000,138.159668600000030,0268-75-5668,0268-75-5667,,株式会社ビューティフルライフ,2090300399,,,29,http://www.ichigoichie-kaigo.com/,,,,
202037,2090300480,長野県,上田市,地域密着型特定有料老人ホーム一期一会中之条,チイキミッチャクガタトクテイユウリョウロウジンホームイチゴイチエナカノジョウ,地域密着型特定施設入居者生活介護（有料老人ホーム）,長野県上田市中之条１２０,,36.394612200000000,138.231793199999970,0268-75-7252,0268-75-7452,,株式会社ビューティフルライフ,2090300480,,,0,www.ichigoichie-kaigo.com,,,,
202037,2090300316,長野県,上田市,地域密着型特定有料老人ホーム　慎,チイキミッチャクガタトクテイユウリョウロウジンホーム　ツツシミ,地域密着型特定施設入居者生活介護（有料老人ホーム）,長野県上田市神畑２６０－１,,36.388520292125605,138.212257006745860,０２６８－７５－０５３３,０２６８－７５－０５３４,8100001018024,株式会社一新,2090300316,,,29,http//www/tutushim.com/,,,,
202037,2090300308,長野県,上田市,ハッピーシニアリビング上田,ハッピーシニアリビングウエダ,地域密着型特定施設入居者生活介護（有料老人ホーム）,長野県上田市材木町２丁目１４番６３号ハッピーシニアリビング上田,ハッピーシニアリビング上田,36.393920700000000,138.269743100000030,0268-75-5981,0268-27-5305,,株式会社アーチ・メディカルサポート,2090300308,,,29,http:www.archms.com,,,,
202053,2090500030,長野県,飯田市,介護付き有料老人ホームたまゆら,カイゴツキユウリョウロウジンホームタマユラ,地域密着型特定施設入居者生活介護（有料老人ホーム）,飯田市北方２６８８－２,,35.506606500000000,137.793050499999930,0265-28-1410,0265-28-1411,,株式会社たまゆら,2090500030,,,,http://nagano-tamayura.com,,,,
202053,2090500055,長野県,飯田市,わくわくホーム,ワクワクホーム,地域密着型特定施設入居者生活介護（有料老人ホーム）,長野県飯田市松尾寺所7043番地1,,35.495900400000000,137.855694399999950,0265-53-5332,0265-53-5332,,有限会社わくわく,2090500055,,,0,https://wak-wak.net/,,,,
203823,2092400056,長野県,辰野町,特定入居者生活介護第２グレイスフル辰野,トクテイニュウキョシャセイカツカイゴダイニグレイスフルタツノ,地域密着型特定施設入居者生活介護（有料老人ホーム）,上伊那郡辰野町樋口４５４－１,,35.963906700000000,137.999558100000060,0266-44-1321,0266-44-1388,,社会福祉法人サン・ビジョン,2092400056,,,0,http://www.e-sunlife.or.jp/service/nagano05/index.html,,,,
212016,2190100186,岐阜県,岐阜市,介護付有料老人ホーム日野岐協苑,カイゴツキユウリョウロウジンホームヒノギキョウエン,地域密着型特定施設入居者生活介護（有料老人ホーム）,岐阜県岐阜市日野北一丁目二番一号,,35.439530100000000,136.803024000000050,058-245-1212,058-245-1222,9200005001543,社会福祉法人岐協福祉会,2190100186,,,29,http://www.gikyoen.jp,,,,
212016,2190100251,岐阜県,岐阜市,長森いきいき倶楽部アネックス介護付有料老人ホーム,ナガモリイキイキクラブアネックスカイゴツキユウリョウロウジンホーム,地域密着型特定施設入居者生活介護（有料老人ホーム）,岐阜県岐阜市北一色１０丁目３８番３,,35.409097500000000,136.794687000000070,058-259-2525,058-259-3838,,社会福祉法人髙佳会,2190100251,,,29,http://www.koukeikai.jp/,,,,
212199,2191000104,岐阜県,郡上市,うららびよりなるがの憩いの家,ウララビヨリナルガノイコイノイエ,地域密着型特定施設入居者生活介護（有料老人ホーム）,岐阜県郡上市白鳥町1527番地69,,35.867048189545580,136.882716508642600,0575-82-2089,0575-82-2264,5200001010700,株式会社　アートジャパンナガヤ設計,2191000104,,,,https://narugano.jimdofree.com/,,,,
222071,2292100027,静岡県,富士宮市,地域密着型特定施設入居者生活介護フォーユー若の宮,チイキミッチャクガタトクテイシセツニュウキョシャセイカツカイゴフォーユーワカノミヤ,地域密着型特定施設入居者生活介護（有料老人ホーム）,富士宮市若の宮町４１２,,35.229342000000000,138.618640100000000,0544-29-6658,0544-25-8526,5080101011974,株式会社フォーユー,2292100027,,,20,http://www.foryou-fukushi.com/,,,,
222127,2275100507,静岡県,焼津市,有料老人ホームたんぽぽ田尻,ユウリョウロウジンホームタンポポタジリ,地域密着型特定施設入居者生活介護（有料老人ホーム）,静岡県焼津市田尻1903-1,,34.823387000000000,138.322026300000060,054-625-0303,054-625-0303,,有限会社　吉田工房,2275100507,,,14,,,,,
221031,2294201385,静岡県,静岡市清水区,介護付有料老人ホームジョイ西久保,カイゴツキユウリョウロウジンホームジョイニシクボ,地域密着型特定施設入居者生活介護（有料老人ホーム）,静岡市清水区西久保1-2-13介護付有料老人ホームジョイ西久保,介護付有料老人ホームジョイ西久保,35.033127300000000,138.482041600000000,054-365-1010,054-365-1011,,加藤建設株式会社,2294201385,,,29,ｈｔｔｐ：//ｗｗｗ.joikaigo.com,,,,
221023,2294201344,静岡県,静岡市駿河区,介護付き有料老人ホームフォレスト高松,カイゴツキユウリョウロウジンホームフォレストタカマツ,地域密着型特定施設入居者生活介護（有料老人ホーム）,静岡市駿河区敷地1-10-9フォレスト高松,フォレスト高松,34.952254000000000,138.409368999999970,054-237-8101,054-237-8106,5080002007477,株式会社　エムズキャスト,2294201344,,,29,msc-care.co.jp/,,,,
221015,2294200957,静岡県,静岡市葵区,有料老人ホーム　まはえ,ユウリョウロウジンホーム　マハエ,地域密着型特定施設入居者生活介護（有料老人ホーム）,静岡市葵区山崎2丁目2-8,,34.977147900000000,138.355253700000050,054-207-8961,054-277-1703,6080002005471,有限会社　まはえ,2294200957,,,29,http://www.mahae-shizuoka.jp/,,,,
221015,2294202540,静岡県,静岡市葵区,カイゴツキユウリョウロウジンホーム　ケアホームキジュアン,介護付キ有料老人ホーム　ケアホーム亀寿庵,地域密着型特定施設入居者生活介護（有料老人ホーム）,静岡県静岡市葵区瀬名7丁目24-25,,35.034481800000000,138.426668400000000,054-297-3300,054-297-3301,,TKS株式会社,2294202540,,,20,http://r.goope.jp/kijyuannishina,,,,
221031,2294200478,静岡県,静岡市清水区,ケアセンターオアシス入江,ケアセンターオアシスイリエ,地域密着型特定施設入居者生活介護（有料老人ホーム）,静岡県静岡市清水区入江３－４－２４,,35.017381900000000,138.477436899999930,054-368-5050,054-368-5070,,株式会社オアシス,2294200478,,,29,oasis-shizuoka.com/,,,,
221325,2297100279,静岡県,浜松市東区,地域密着型施設あおぞら中ノ町,チイキミッチャクガタシセツアオゾラナカノマチ,地域密着型特定施設入居者生活介護（有料老人ホーム）,浜松市東区中野町1217番地,,34.728529900000000,137.796186199999960,053-421-8700,053-421-8705,,医療法人社団瑞芳会石垣内科医院,2297100279,,,0,http://www.ishigakinaika.jp/,,,,
221325,2297100196,静岡県,浜松市東区,地域密着型施設おあぞらライフ大蒲,チイキミッチャクガタシセツアオゾラライフオオカバ,地域密着型特定施設入居者生活介護（有料老人ホーム）,静岡県浜松市東区大蒲町74-6,,34.715079500000000,137.763265000000050,053-411-3600,053-460-0306,8080405000299,医療法人社団瑞芳会石垣内科医院,2297100196,,,,http://www.ishigakinaika.jp/,,,,
232025,2392100141,愛知県,岡崎市,特定施設老人ホーム　岡崎介護センタースミレ,トクテイシセツロウジンホーム　オカザキカイゴセンタースミレ,地域密着型特定施設入居者生活介護（有料老人ホーム）,岡崎市細川町字下大針１９３－１,,35.025651900000000,137.178264799999970,0564-45-1714,0564-45-1714,,有限会社介護センタースミレ,2392100141,,,0,http://kaigosumire.com/,,,,
232025,2392100570,愛知県,岡崎市,暮らしの杜　ふくろうの家,クラシノモリ　フクロウノイエ,地域密着型特定施設入居者生活介護（有料老人ホーム）,愛知県岡崎市羽根町字若宮３０−１,,34.926402900000000,137.160009500000000,0564-73-0381,0564-73-0381,,有限会社　のぞみ,2392100570,,,0,http://www.yumeno.co.jp,,,,
232050,2392400152,愛知県,半田市,地域密着型特定施設入居者生活介護サンケアはんだ,チイキミッチャクガタトクテイシセツニュウキョシャセイカツカイゴサンケアハンダ,地域密着型特定施設入居者生活介護（有料老人ホーム）,愛知県半田市浜田町1丁目６８－４,,34.903625700000000,136.949048500000000,0569-23-8601,0569-23-8611,7180001086535,株式会社　サンケア,2392400152,,,29,http://www.suncare-japan.co.jp/,,,,
232122,2393100165,愛知県,安城市,すえひろ翔裕館,スエヒロショウユウカン,地域密着型特定施設入居者生活介護（有料老人ホーム）,愛知県安城市末広町9-27すえひろ翔裕館,すえひろ翔裕館,34.956419315256426,137.084850001787860,0566-93-5575,0566-93-5576,6160001003609,株式会社　関西サンガ,2393100165,,,0,https://www.kansaisanga.jp,,,,
232025,2392100257,愛知県,岡崎市,特定施設　さかそう,トクテイシセツ　サカソウ,地域密着型特定施設入居者生活介護（有料老人ホーム）,坂左右町西之郷８－１,,34.906704500000000,137.139340299999960,0564-72-5066,0564-72-5067,,有限会社　真　寿　会,2392100257,,,0,,,,,
232025,2392100083,愛知県,岡崎市,よっこらしょっ青い鳥,ヨッコラショッアオイトリ,地域密着型特定施設入居者生活介護（有料老人ホーム）,愛知県岡崎市昭和町字天神18番地,,34.945972200000000,137.119787299999980,0564-64-5271,0564-31-0097,,株式会社　夢花,2392100083,,,21,https://aoitori-home.com/,,,,
232106,2392900060,愛知県,刈谷市,介護付有料老人ホームゴールドピアかりや,カイゴツキユウリョウロウジンホームゴールドピアカリヤ,地域密着型特定施設入居者生活介護（有料老人ホーム）,刈谷市小垣江町白沢45番地,,34.958808971568650,137.009084786122370,0566-24-7070,0566-24-7071,3180305005021,社会福祉法人長寿会,2392900060,,,,http://www.choujyukai.or.jp,,,,
232122,2393100116,愛知県,安城市,介護付有料老人ホーム　みどりの家,カイゴツキユウリョウロウジンホーム　ミドリノイエ,地域密着型特定施設入居者生活介護（有料老人ホーム）,愛知県安城市北山崎町北浦18,,34.968176443754350,137.103518110173040,0566-71-1800,0566-71-1801,,介護付有料老人ホーム　みどりの家,2393100116,,,29,http://www.midorikaigo.jp/,,,,
232122,2393100256,愛知県,安城市,すえひろ翔裕館,スエヒロショウユウカン,地域密着型特定施設入居者生活介護（有料老人ホーム）,愛知県安城市末広町9－27すえひろ翔裕館,すえひろ翔裕館,34.956023100000000,137.085022800000000,0566‐93‐5575,0566‐93‐5576,6160001003609,株式会社　サンガジャパン,2393100256,,,,,,,,
232122,2393100264,愛知県,安城市,介護付き有料老人ホーム　長寿の郷安城,カイゴツキユウリョウロウジンホーム　チョウジュノサトアンジョウ,地域密着型特定施設入居者生活介護（有料老人ホーム）,愛知県安城市箕輪町青木25-1,,34.956903699999990,137.054405800000000,0566-72-0010,052-308-6952,2180301017129,株式会社日本介護研究所,2393100264,,,0,https://meglus.co.jp/,,,,
232238,2374200554,愛知県,大府市,介護付有料老人ホーム　ケアビレッジさくらぎ,カイゴツキユウリョウロウジンホーム　ケアビレッジサクラギ,地域密着型特定施設入居者生活介護（有料老人ホーム）,愛知県大府市桜木町4丁目1番地1,,34.987311300000000,136.918107299999970,0562-45-5245,0562-45-5245,,有限会社　フタバメイト,2374200554,,,20,"http://takatu,ddo,jp/yasui/senior/index.htm",,,,
234427,2395700061,愛知県,東浦町,介護付有料老人ホームつくし,カイゴツキユウリョウロウジンホームツクシ,地域密着型特定施設入居者生活介護（有料老人ホーム）,知多郡東浦町石浜笹原27番地,,34.964326700000000,136.964088800000000,0562-82-5550,0562-82-5551,2180005012483,あやめ会,2395700061,,,29,http://ayame-akane-kk.com/about/,,,,
232343,2397400116,愛知県,北名古屋市,うらら別邸レジデンス,ウララベッテイレジデンス,地域密着型特定施設入居者生活介護（有料老人ホーム）,愛知県北名古屋市熊之庄江川70番地うらら別邸,うらら別邸,35.251043800000000,136.888173500000000,0568-55-7170,0568-55-7170,,医療法人MDM,2397400116,,,0,http://www.hillslife.net/kousen.html,,,,
231053,2390500144,愛知県,名古屋市中村区,介護付有料老ホーム　のぞみ,カイゴツキユウリョウロウジンホーム　ノゾミ,地域密着型特定施設入居者生活介護（有料老人ホーム）,城屋敷町三丁目４１番地,,35.169392441426936,136.841533993254070,052-419-0314,052-419-0315,,偕行会,2390500144,,,0,https://www.kaikou.or.jp/nozomi/,,,,
231100,2391000219,愛知県,名古屋市中川区,介護付有料老人ホームフレンズハウス下之一色,カイゴツキユウリョロウジンホームフレンズハウスシモノイッシキ,地域密着型特定施設入居者生活介護（有料老人ホーム）,名古屋市中川区下之一色町字北起４９－１,,35.123815357301730,136.833559786508200,052-303-1012,052-303-1013,1180001055446,株式会社フレンズホーム,2391000219,,,29,http://www15.plala.or.jp/furenzu-hao/,,,,
231118,2391100076,愛知県,名古屋市港区,地域密着型特定施設　華の郷　南陽,チイキミッチャクガタトクテイシセツ　ハナノサト　ナンヨウ,地域密着型特定施設入居者生活介護（有料老人ホーム）,名古屋市港区新茶屋1丁目１７２８,,35.109308800000000,136.807236699999980,052-304-1147,052-304-1148,,社会福祉法人　華陽会,2391100076,,,0,http://www.kayoukai.net,,,,
242055,2490100167,三重県,桑名市,ケアタウン九華,ケアタウンクワナ,地域密着型特定施設入居者生活介護（有料老人ホーム）,三重県桑名市本町３９番地,,35.066235500000000,136.695407299999940,0594-25-8556,0594-25-8602,,NPO法人　ヘルスケアサポート協会,2490100167,,,,,,,,
242071,2490300148,三重県,鈴鹿市,介護付有料老人ホーム　みっかいち,カイゴツキユウリョウロウジンホーム　ミッカイチ,地域密着型特定施設入居者生活介護（有料老人ホーム）,鈴鹿市三日市3丁目17－5,,34.875576700000000,136.556271899999960,059-381-1133,059-381-1134,,有限会社ウェルフェア三重,2490300148,,,29,http://www.welfare‐mie.jp,,,,
242055,2490100217,三重県,桑名市,ケアタウン九華,ケアタウンクハナ,地域密着型特定施設入居者生活介護（有料老人ホーム）,三重県桑名市本町39番地,,35.066235500000000,136.695407299999940,0594-25-8556,0594-25-8602,2190001020415,ヘルスケアサポート株式会社,2490100217,,,20,http:/www.hc-support.com,,,,
242055,2490100183,三重県,桑名市,介護付有料老人ホーム　エクセレント多度,カイゴツキユウリョウロウジンホーム　エクセレントタド,地域密着型特定施設入居者生活介護（有料老人ホーム）,三重県桑名市多度町大字香取４８３番地1,,35.130140457634490,136.652241164170820,0594-48-7727,0594-48-7728,,医療法人　福島会,2490100183,,,29,http://www.fukujima.jp,,,,
242152,2492900028,三重県,志摩市,わかば,ワカバ,地域密着型特定施設入居者生活介護（有料老人ホーム）,三重県志摩市志摩町布施田１６７５－１,,34.255374000000000,136.823560800000000,0599-85-5300,0599-85-5307,,有限会社　ケアリゾート,2492900028,,,0,http://www.care-resort.co.jp,,,,
252026,2590200164,滋賀県,彦根市,平田ケアレジデンス翔裕館,ヒラタケアレジデンスショウユウカン,地域密着型特定施設入居者生活介護（有料老人ホーム）,滋賀県彦根市平田町１１１４－１昭和元気くらぶ彦根,昭和元気くらぶ彦根,35.260630715176920,136.238445041139240,0749-21-2881,0749-21-2883,6160001003609,株式会社関西サンガ,2590200164,,,20,http://www.kansaisanga.jp,,,,
261092,2690900192,京都府,京都市伏見区,有料老人ホーム　マイスイートホーム,ユウリョウロウジンホーム　マイスイートホーム,地域密着型特定施設入居者生活介護（有料老人ホーム）,京都市伏見区日野奥出21,,34.930198300000000,135.816057499999940,075-571-5707,075-571-5708,,京都ユーメディクス株式会社,2690900192,,,,http://my-sweethome.jp,,,,
261092,2690900101,京都府,京都市伏見区,ハーモニーこがなの家,ハーモニーコガナノイエ,地域密着型特定施設入居者生活介護（有料老人ホーム）,京都市伏見区久我石原町1-41,,34.946282309138866,135.732927979623380,075-334-5725,075-334-5780,,くらしのハーモニー,2690900101,,,0,http://www.kurashino-harmony.or.jp/facility/facility02.html,,,,
261084,2690700337,京都府,京都市右京区,グランメゾン迎賓館京都鳴滝,グランメゾンゲイヒンカンキョウトナルタキ,地域密着型特定施設入居者生活介護（有料老人ホーム）,京都府京都市右京区鳴滝松本町20-1,,35.033719500000000,135.699704200000040,075-464-2330,075-464-2320,,株式会社グランユニライフケアサービス,2690700337,,,24,https://grand-maison.jp/,,,,
261084,2690700279,京都府,京都市右京区,介護付有料老人ホーム　御所ノ内ときわ,カイゴツキユウリョウロウジンホーム　ゴショノウチトキワ,地域密着型特定施設入居者生活介護（有料老人ホーム）,京都府京都市右京区太秦青木ケ原町7－2,,35.019098600000000,135.703482099999970,075-872-8201,075-872-8200,,メディカルケア御所ノ内株式会社,2690700279,,,18,http://goshonouchi.com/tokiwa/,,,,
261084,2690700394,京都府,京都市右京区,そうごうケアホーム高雄,ソウゴウケアホームタカオ,地域密着型特定施設入居者生活介護（有料老人ホーム）,京都府京都市右京区梅ケ畑畑町5-1,,35.037350700000000,135.693339700000000,075-406-5715,075-406-5716,,総合ケア株式会社,2690700394,,,,,,,,
261114,2694000098,京都府,京都市西京区,エクセレント桂,エクセレントカツラ,地域密着型特定施設入居者生活介護（有料老人ホーム）,牛ヶ瀬西柿町75,,34.971080158237160,135.716141590213050,075-382-6511,075-382-6512,7480001003600,株式会社　エクセレントケアシステム,2694000098,,,0,http://excare.co.jp,,,,
261017,2690100165,京都府,京都市北区,アーバンヴィラ西賀茂,アーバンウ゛ィラニシガモ,地域密着型特定施設入居者生活介護（有料老人ホーム）,京都府京都市北区西賀茂南大栗町11番地,,35.060584929858470,135.746097030024660,075-492-3010,075-492-3020,9130001026766,アーバンスタイルケア株式会社,2690100165,,,14,http://www.urban-stylecare.co.jp,,,,
261017,2690100272,京都府,京都市北区,カノン北山　レジデンス,カノンキタヤマ　レジデンス,地域密着型特定施設入居者生活介護（有料老人ホーム）,京都府京都市北区上賀茂松本町96-1,,35.053487400000000,135.766936100000000,075-702-0210,050-3737-6288,,株式会社　アミタ,2690100272,,,,https://www.canonkitayama.com/,,,,
261025,2690200031,京都府,京都市上京区,アーバンヴィラ　千本笹屋町,アーバンヴィラ　センボンササヤチョウ,地域密着型特定施設入居者生活介護（有料老人ホーム）,京都市上京区笹屋町通千本東入笹屋町３丁目６２２番地,,35.032373199999990,135.749696999999970,075-414-7813,075-414-7823,,アーバンスタイルケア株式会社,2690200031,,,26,http://www.urban-stylecare.co.jp,,,,
261068,2690400045,京都府,京都市下京区,アーバンヴィラ四条大宮,アーバンゔィラシジョウオオミヤ,地域密着型特定施設入居者生活介護（有料老人ホーム）,京都市下京区大宮通綾小路下る綾大宮町５２番地,,35.003587000000000,135.748755999999960,075-432-7388,075-801-5502,,アーバンスタイルケア株式会社,2690400045,,,29,http://www.urban-stylecare.co.jp,,,,
261114,2694000270,京都府,京都市西京区,はるかぜガーデン桂川,ハルカゼガーデンカツラガワ,地域密着型特定施設入居者生活介護（有料老人ホーム）,京都市西京区桂上野西町234はるかぜガーデン桂川,はるかぜガーデン桂川,34.995361800000000,135.700971699999970,075-748-9415,075-748-9416,6480005003886,医療法人近藤内科医院,2694000270,,,,http://www.harukaze-garden.or.jp/,,,,
261114,2694000064,京都府,京都市西京区,アーバンヴィラ上桂,アーバンウ゛ィラカミカツラ,地域密着型特定施設入居者生活介護（有料老人ホーム）,京都府京都市西京区上桂北村町114番地高齢者総合施設上桂,高齢者総合施設上桂,34.992401000000000,135.699827300000040,075-382-1615,075-382-1705,,アーバンスタイルケア株式会社,2694000064,,,29,http://www.urban-stylecare.co.jp,,,,
272043,2792500189,大阪府,池田市,地域密着型介護付有料老人ホームオレンジ池田,チイキミッチャクガタカイゴツキユウリョウロウジンンホームオレンジイケダ,地域密着型特定施設入居者生活介護（有料老人ホーム）,大阪府池田市井口堂二丁目4番6号,,34.816583599999990,135.444778700000030,072-760-0003,072-760-0303,2120905004949,社会福祉法人惠愛会,2792500189,,,24,http://keiaikai-swc.com/,,,,
272141,2794900239,大阪府,富田林市,介護付き有料老人ホーム　フォーライフレジデンス,カイゴツキユウリョウロウジンホーム　フォーライフレジデンス,地域密着型特定施設入居者生活介護（有料老人ホーム）,大阪府富田林市寿町４丁目８番４号,,34.497864443012865,135.593639675532500,0721-25-5225,0721-25-3553,2120105004898,医療法人　正清会,2794900239,,,0,http://www.kongoubyouin.com/residence/index/,,,,
272311,2799300104,大阪府,大阪狭山市,さくらの杜・半田,サクラノモリ・ハンダ,地域密着型特定施設入居者生活介護（有料老人ホーム）,大阪府大阪狭山市半田３－４７１－１,,34.491520264486050,135.553685725656120,072-288-4381,072-288-4382,7120101027295,ヘルスケアリンク株式会社,2799300104,,,29,http://www.healthcare-link.co.jp/index.html,,,,
271080,2792700102,大阪府,大阪市大正区,地域密着型特定施設ハイサイ,チイキミッチャクガタトクテイシセツハイサイ,地域密着型特定施設入居者生活介護（有料老人ホーム）,大阪府大阪市大正区鶴町3丁目１７番６号,,34.640148400000000,135.454198799999970,06-6553-2764,06-6553-2764,4120005007520,医療法人港南会,2792700102,,,29,,,,,
271217,2790800102,大阪府,大阪市東住吉区,ハートフルリビングなでしこ桑津,ハートフルリビングナデシコクワヅ,地域密着型特定施設入居者生活介護（有料老人ホーム）,大阪府大阪市東住吉区桑津４－６－１８,,34.636547400000000,135.532652900000020,06-6777-0087,06-6777-0027,8120002054537,有限会社　なでしこ,2790800102,,,0,http://www.745165.co.jp,,,,
271233,2799100165,大阪府,大阪市淀川区,有料老人ホームみさき西三国,ユウリョウロウジンホームミサキニシミクニ,地域密着型特定施設入居者生活介護（有料老人ホーム）,大阪市淀川区西三国1-2-23,,34.739905331171116,135.491425043516560,06-6350-8211,06-6350-8212,7120001127352,株式会社美咲,2799100165,,,29,http://misaki-kaigo.co.jp,,,,
271250,2795900170,大阪府,大阪市住之江区,あろんてぃあ・はうす住之江,アロンティアハウス・スミノエ,地域密着型特定施設入居者生活介護（有料老人ホーム）,大阪府大阪市住之江区安立1-4-4,,34.608912618699186,135.489571400663750,06-4701-9565,06-4701-9566,,医療法人　弘善会,2795900170,,,0,http://www.kouzenkai.or.jp,,,,
282065,2891000040,兵庫県,芦屋市,シニアライフコート潮芦屋　やすらぎ,シニアライフコートシオアシヤ　ヤスラギ,地域密着型特定施設入居者生活介護（有料老人ホーム）,芦屋市陽光町4-55,,34.713792500000000,135.315166900000000,0797-25-2231,0797-25-2232,,株式会社　メディケア・プランニング,2891000040,,,20,http://medicare-planning.jp/seniorlifecourt/pc/index.php,,,,
282022,2893000279,兵庫県,尼崎市,介護付有料老人ホーム　ラウレート,カイゴツキユウリョウロウジンホーム　ラウレート,地域密着型特定施設入居者生活介護（有料老人ホーム）,兵庫県尼崎市武庫川町1-8,,34.716092611525500,135.390465481614680,06-6419-4481,06-6419-4483,7140005011014,医療法人社団　青洲会,2893000279,,,29,http://www.seisyu-kai.com/nursing-home.html#tabs-1,,,,
282022,2893000493,兵庫県,尼崎市,介護付有料老人ホーム　うさぎの里,カイゴツキユウリョウロウジンホーム　ウサギノサト,地域密着型特定施設入居者生活介護（有料老人ホーム）,尼崎市稲葉元町2丁目1番12号,,34.737658000000000,135.388797200000000,06-6430-6527,06-6430-6528,,コウダイケアサービス株式会社,2893000493,,,0,https://oudai-care.co.jp/,,,,
282065,2891000073,兵庫県,芦屋市,芦屋アラベラの家（地域密着型）,アシヤアラベラノイエ　チイキミッチャクガタ,地域密着型特定施設入居者生活介護（有料老人ホーム）,芦屋市朝日ヶ丘町９－１,,34.746448000000030,135.304409500000020,0797-23-1200,0797-23-2200,8140005002417,社会福祉法人　緑水会,2891000073,,,29,http://www.arabella.jp,,,,
282065,2891000057,兵庫県,芦屋市,reach芦屋,リーチ　アシヤ,地域密着型特定施設入居者生活介護（有料老人ホーム）,打出町6-4,,34.732624100000000,135.321446700000020,0797-35-5766,0797-35-6856,6140001026693,株式会社nomane,2891000057,,,0,,,,,
302015,3090100508,和歌山県,和歌山市,地域密着型特定施設　サンオーク紀伊,チイキミッチャクガタトクテイシセツ　サンオークキイ,地域密着型特定施設入居者生活介護（有料老人ホーム）,和歌山市北野291番地,,34.268482200000000,135.248365100000000,073-461-7511,073-461-7512,,社会福祉法人　喜成会,3090100508,,,0,http://www.kiseikai-w.or.jp,,,,
304042,3092400013,和歌山県,上富田町,ファミールハウス,ファミールハウス,地域密着型特定施設入居者生活介護（有料老人ホーム）,和歌山県西牟婁郡上富田町岡627-1,,33.723846800000000,135.444253600000000,0739-83-3866,0739-83-3866,7170002009917,有限会社アクセス,3092400013,,,,,,,,
312011,3190100622,鳥取県,鳥取市,さとにメディケアホームいろり,サトニメディケアホームイロリ,地域密着型特定施設入居者生活介護（有料老人ホーム）,鳥取県鳥取市里仁54番地2,,35.503367600000000,134.194084800000040,0857-54-1830,0857-54-1831,5270005002803,医療法人さとに田園クリニック,3190100622,,,29,http://www.satoni-denen-clinic.jp/,,,,
312011,3190100697,鳥取県,鳥取市,吉方温泉友和苑,ヨシカタオンセンユウワエン,地域密着型特定施設入居者生活介護（有料老人ホーム）,鳥取県鳥取市吉方温泉2丁目502番地,,35.493552491551300,134.235682725725600,0857-24-6521,0857-24-6522,,日本土地株式会社,3190100697,,,0,,,,,
312011,3190100655,鳥取県,鳥取市,有料老人ホームきらめき館　［本館］,ユウリョウロウジンホームキラメキカン　ホンカン,地域密着型特定施設入居者生活介護（有料老人ホーム）,鳥取市覚寺61-2,,35.521188500000000,134.228016499999970,0857-30-7608,0857-30-7609,,株式会社ウィルファーム,3190100655,,,0,https://www.kiramekikan.com/,,,,
312029,3190200554,鳥取県,米子市,介護付きホーム　ほのぼのエルル観音寺新町,カイゴツキホーム　ホノボノエルルカンノンジシンマチ,地域密着型特定施設入居者生活介護（有料老人ホーム）,鳥取県米子市観音寺新町3丁目5-33,,35.423966100000000,133.360275700000000,0859-21-1530,0859-21-2078,,株式会社エルフィス,3190200554,,,0,http://elfith.com/,,,,
313289,3191200058,鳥取県,智頭町,介護付有料老人ホームすわの郷,カイゴツキユウリョウロウジンホームスワノサト,地域密着型特定施設入居者生活介護（有料老人ホーム）,鳥取県八頭郡智頭町三田977番地20,,35.257294950471575,134.221615020068400,0858-71-0268,0858-71-0267,,ジャパンケアサポート株式会社,3191200058,,,18,http://www.japan-caresupport.com/outline.html,,,,
322091,3291400210,島根県,雲南市,ウェルライフ三刀屋,ウェルライフミトヤ,地域密着型特定施設入居者生活介護（有料老人ホーム）,島根県雲南市三刀屋町下熊谷1675番地2,,35.306271300000000,132.896670500000000,0854-45-5406,0854-45-5413,,株式会社ヒカリエ,3291400210,,,0,,,,,
332038,3390300105,岡山県,津山市,特定施設のどか,トクテイシセツノドカ,地域密着型特定施設入居者生活介護（有料老人ホーム）,岡山県津山市神戸２６２－１,,35.057187400000000,133.945126200000000,0868-28-7555,0868-28-0545,8260002027842,有限会社のどか宅老所,3390300105,,,29,,,,,
332020,3390201006,岡山県,倉敷市,地域密着型特定施設入居者生活介護　グリーンビレッジ瀬戸内,チイキミッチャクガタトクテイシセツニュウキョシャセイカツカイゴ　グリーンビレッジセトウチ,地域密着型特定施設入居者生活介護（有料老人ホーム）,岡山県倉敷市船穂町柳井原２３００－１,,34.610576160385950,133.715816933946260,086-552-5112,086-552-5114,,社会福祉法人瀬戸内福祉事業会,3390201006,,,0,http://www.setouchifukushi.jp,,,,
332020,3390201329,岡山県,倉敷市,介護付有料老人ホーム　あいわ,カイゴツキユウリョウロウジンホーム　アイワ,地域密着型特定施設入居者生活介護（有料老人ホーム）,岡山県倉敷市西阿知町375,,34.595190721729104,133.735836298811360,086-486-5530,086-465-5520,5260005005798,特定非営利活動法人愛和,3390201329,,,0,http://www.npo-aiwa.org/,,,,
332038,3390300121,岡山県,津山市,アーバンライフ二階町,アーバンライフニカイマチ,地域密着型特定施設入居者生活介護（有料老人ホーム）,岡山県津山市二階町２３－３,,35.059474228998600,134.001583066235780,0868-35-2000,0868-35-2002,,一般財団法人津山慈風会,3390300121,,,29,http://urban-nice.jp/,,,,
332038,3390300147,岡山県,津山市,特定施設　蓉厚苑,トクテイシセツ　ヨウコウエン,地域密着型特定施設入居者生活介護（有料老人ホーム）,岡山県津山市加茂町塔中105特定施設蓉厚苑,特定施設蓉厚苑,35.178440300000010,134.053995500000040,0868-42-2125,0868-42-2126,,有限会社スピリッツ,3390300147,,,29,http://spirits-care.jp/,,,,
332038,3390300113,岡山県,津山市,サンホームおおだ,サンホームオオダ,地域密着型特定施設入居者生活介護（有料老人ホーム）,岡山県津山市大田８３－５,,35.083494500000000,134.007555799999980,0868-32-9150,0868-32-9155,1260005006692,医療法人西下病院,3390300113,,,0,http://www.nishishita-hp.or.jp/,,,,
342131,3492700111,広島県,廿日市市,介護付有料老人ホーム　カーサ　ミーア,カイゴツキユウリョウロウジンホーム　カーサ　ミーア,地域密着型特定施設入居者生活介護（有料老人ホーム）,廿日市市陽光台3丁目1番地3,,34.356098300000000,132.311296200000010,0829-37-1133,0829-37-1134,7240005006846,医療法人ハートフル,3492700111,,,0,http://www.amano-reha.com,,,,
352080,3590800136,山口県,岩国市,有料老人ホーム　秀東館　美空,ユウリョウロウジンホーム　シュウトウカン　ミソラ,地域密着型特定施設入居者生活介護（有料老人ホーム）,岩国市周東町西長野265-1,,34.090819900000000,132.036536599999980,0827-83-0010,0827-84-0033,8250002019270,有限会社　龍泉,3590800136,,,29,http://www.shutoukan.com,,,,
352080,3590800011,山口県,岩国市,ケアホーム横山　陽だまりの家,ケアホームヨコヤマ　ヒダマリノイエ,地域密着型特定施設入居者生活介護（有料老人ホーム）,山口県岩国市横山３－８－１０,,34.176271300000000,132.178847799999970,0827-43-5151,0827-43-5152,,有限会社　福栄,3590800011,,,29,https://hidamaarinoie-yokoyama.com,,,,
372013,3790100329,香川県,高松市,介護付有料老人ホーム　オアシスＫ,カイゴツキユウリョウロウジンホーム　オアシスケイ,地域密着型特定施設入居者生活介護（有料老人ホーム）,香川県高松市飯田町705番地,,34.314170400000000,133.997764500000020,087-813-1234,087-813-1141,,有限会社　博永興産,3790100329,,,,,,,,
372021,3790200293,香川県,丸亀市,介護付き有料老人ホーム　ゆらぎ,カイゴツキユウリョウロウジンホーム　ユラギ,地域密着型特定施設入居者生活介護（有料老人ホーム）,香川県丸亀市今津町１９番地１,,34.274326957218655,133.788524360775340,０８７７−２２−３１７７,０８７７−２２−３１７２,,医療法人社団宝樹みやの会,3790200293,,,,http://www.miyano-hp.com/,,,,
372056,3790500213,香川県,観音寺市,介護付き有料老人ホーム大興和の里,カイゴツキユウリョウロウジンホームダイコウワノサト,地域密着型特定施設入居者生活介護（有料老人ホーム）,香川県観音寺市植田町1919番地,,34.124688500000000,133.677103600000000,0875-23-4500,0875-23-2200,,医療法人社団メディカルクラブ大興和,3790500213,,,,http://cl-ikeda.com/daikouwa/,,,,
373222,3791200086,香川県,土庄町,介護付き有料老人ホームはまひるがお,カイゴツキユウリョウロウジンホームハマヒルガオ,地域密着型特定施設入居者生活介護（有料老人ホーム）,香川県小豆郡土庄町字半ノ池甲1356番地１,,34.478211507715855,134.180434616810510,0879-62-8808,0879-62-8807,2470005005788,医療法人社団一士会,3791200086,,,29,hamahirugao.jp,,,,
374067,3791600103,香川県,まんのう町,介護付有料老人ホームかりんの郷,カイゴツキユウリョウロウイジンホームカリンノサト,地域密着型特定施設入居者生活介護（有料老人ホーム）,香川県仲多度郡まんのう町炭所西1521-1,,34.180277600000000,133.879588099999980,0877-79-1300,0877-79-1308,2470005003131,社会福祉法人優真会,3791600103,,,,http：//www.karinnosato.biz/,,,,
384011,3893500144,愛媛県,松前町,有料老人ホームみかん・松前,ユウリョウロウジンホームミカン・マサキ,地域密着型特定施設入居者生活介護（有料老人ホーム）,愛媛県伊予郡松前町大字恵久美８０４番地1,,33.798857300000000,132.727656700000000,0899096095,0899096097,,社会福祉法人みかん会,3893500144,,,,http://mikankai.com/,,,,
392014,3990100392,高知県,高知市,特定施設　みやびの里,トクテイシセツ　ミヤビノサト,地域密着型特定施設入居者生活介護（有料老人ホーム）,高知県高知市比島町4丁目6-9,,33.573182799999940,133.549137800000040,088-822-8855,088-822-8857,9490005000624,医療法人　仁栄会,3990100392,,,29,shimadu-miyabinosato.@royal.ocn.ne.jp,,,,
392014,3990100509,高知県,高知市,やまむら,ヤマムラ,地域密着型特定施設入居者生活介護（有料老人ホーム）,高知県高知市下島町124番地1,,33.554378299999925,133.507580655819800,088-875-1165,088-875-1167,,医療法人　山村会,3990100509,,,29,www.yamamurakai.com/,,,,
392014,3990100376,高知県,高知市,地域密着型特定施設　花かいろう,チイキミッチャクガタトクテイシセツ　ハナカイロウ,地域密着型特定施設入居者生活介護（有料老人ホーム）,高知県高知市長浜4450-8,,33.489125500000000,133.547374499999930,088-842-2138,088-842-2151,,株式会社　優美,3990100376,,,29,,,,,
392014,3990100442,高知県,高知市,介護付有料老人ホーム夕やけ小やけ,カイゴツキユウリョウロウジンホームユウヤケコヤケ,地域密着型特定施設入居者生活介護（有料老人ホーム）,高知県高知市神田1002-1,,33.540591000000000,133.505057099999930,088-837-7113,088-834-3911,6490005004669,社会福祉法人ふるさと自然村,3990100442,,,0,http://f-shizenmura.or.jp,,,,
392103,3991000138,高知県,四万十市,有料老人ホーム　あったかホーム　ひなげし,ユウリョウロウジンホーム　アッタカホーム　ヒナゲシ,地域密着型特定施設入居者生活介護（有料老人ホーム）,高知県四万十市安並1696－1,,33.003816000000000,132.939657000000000,0880－35－0711,0880－35－0722,,株式会社　優美,3991000138,,,0,,,,,
392103,3991000120,高知県,四万十市,有料老人ホームあったかホーム　なでしこ,ユウリョウロウジンホームアッタカホームナデシコ,地域密着型特定施設入居者生活介護（有料老人ホーム）,高知県四万十市有岡1727-1なし,なし,32.964395400000000,132.827013600000000,0880-37-1251,0880-37-1257,,株式会社　優美,3991000120,,,0,,,,,
392081,3990900023,高知県,宿毛市,すくも高齢者住宅菜の花,スクモコウレイシャジュウタク　ナノハナ,地域密着型特定施設入居者生活介護（有料老人ホーム）,高知県宿毛市平田町戸内223-1,,32.954695976408225,132.778765477909810,0880-66-1921,0880-66-1237,,有限会社フロル・デ・コルサ,3990900023,,,0,http://www.gallery.ne.jp/~y-s-k/,,,,
402109,4092300039,福岡県,八女市,介護付有料老人ホーム　グラン八女の里,カイゴツキユウリョウロウジンホーム　グランヤメノサト,地域密着型特定施設入居者生活介護（有料老人ホーム）,福岡県八女市柳島863番地,,33.215901100000000,130.607276200000000,0943-30-3688,0943-22-2403,1290005008785,社会福祉法人八女福祉会,4092300039,,,10,http://www.yame-sato.com/,,,,
402303,4093500041,福岡県,糸島市,有限会社あしたば地域密着型特定施設入居者生活介護事業所,ユウゲンガイシャアシタバチイキミッチャクガタトクテイシセツニュウキョシャセイカツカイゴジギョウショ,地域密着型特定施設入居者生活介護（有料老人ホーム）,福岡県糸島市有田中央二丁目6番27号,,33.546450500000000,130.216205800000000,092-321-4210,,,有限会社　あしたば,4093500041,,,9,http://ashitaba-kaigo.net,,,,
402028,4071501706,福岡県,大牟田市,有料老人ホーム　杏,ユウリョウロウジンホーム　アンズ,地域密着型特定施設入居者生活介護（有料老人ホーム）,福岡県大牟田市大字倉永７６－１,,33.071294100000000,130.464468099999980,0944-58-0398,0944-58-0329,5290002056305,有限会社　う　え　だ,4071501706,,,0,,,,,
402028,4071501888,福岡県,大牟田市,介護付き有料老人ホームすまいるホーム歴木・二番館,カイゴツキユウリョウロウジンホームスマイルホーム二番館,地域密着型特定施設入居者生活介護（有料老人ホーム）,福岡県大牟田市歴木1807-1202,,33.035447204791580,130.477335341204220,0944-32-8035,0944-32-8035,8290002056384,株式会社シャイニングライフ,4071501888,,,20,http://www.smilehome-kanri.jp,,,,
402028,4091500464,福岡県,大牟田市,介護付有料老人ホーム　コージーヴィラ南船津,カイゴツキユウリョウロウジンホーム　コージービラミナミフナツ,地域密着型特定施設入居者生活介護（有料老人ホーム）,福岡県大牟田市南船津町１丁目９番１号,,33.009113800000000,130.436099600000030,0944-88-9127,0944-59-3010,6330005004214,医療法人　藤杏会,4091500464,,,18,http://www.tokyoukai.or.jp/villam.html,,,,
402028,4091500514,福岡県,大牟田市,地域密着型特定施設　てとての森,チイキミッチャクガタトクテイシセツ　テトテノモリ,地域密着型特定施設入居者生活介護（有料老人ホーム）,福岡県大牟田市小川町３０番地1,,33.021929100000000,130.429386100000000,0944-55-0150,0944-55-0151,1290005013629,医療法人CLSすがはら,4091500514,,,0,http://www.sugahara-hospital.com,,,,
402052,4091800187,福岡県,飯塚市,介護付有料老人ホーム太陽の郷,カイゴツキユウリョウロウジンホームタイヨウノサト,地域密着型特定施設入居者生活介護（有料老人ホーム）,福岡県飯塚市鯰田５１６番地１７,,33.666610600000000,130.710051700000000,0948-26-7789,0948-26-3003,8290005007863,社会福祉法人　親孝会,4091800187,,,0,"http://www.taiyonosato,jp",,,,
402052,4091800021,福岡県,飯塚市,すまいるホーム飯塚,スマイルホームイイヅカ,地域密着型特定施設入居者生活介護（有料老人ホーム）,福岡県飯塚市横田10番地,,33.643413000000000,130.676034900000000,0948-21-8660,0948-21-8660,,有限会社コーエイ,4091800021,,,17,http://drugkoei.com/smile/index.html,,,,
402052,4091800062,福岡県,飯塚市,ふれあいホーム菰田,フレアイホームコモダ,地域密着型特定施設入居者生活介護（有料老人ホーム）,福岡県飯塚市菰田１３７番地８,,33.630034300000000,130.694897800000030,0948-43-3776,0948-43-3328,3290005007769,社会福祉法人　芳寿会,4091800062,,,0,1.あり:→http://www.f-houjyukai.jp/,,,,
402052,4091800161,福岡県,飯塚市,介護付有料老人ホーム　第２八木山の里すずらん,カイゴツキユウリョウロウジンホームダイニヤキヤマノサトスズラン,地域密着型特定施設入居者生活介護（有料老人ホーム）,福岡県飯塚市八木山１２４９番地１,,33.623782600000000,130.601472699999930,0948-23-2718,0948-23-0018,2290005007910,綜合開発企業組合,4091800161,,,29,,,,,
402192,4093200121,福岡県,大野城市,介護付有料老人ホーム　木もれ日の館,カイゴツキユウリョウロウジンホーム　コモレビノヤカタ,地域密着型特定施設入居者生活介護（有料老人ホーム）,福岡県大野城市東大利３丁目１１番２２号,,33.526408200000000,130.488906700000030,092-593-2300,092-593-2366,1290001023144,株式会社　裕生堂,4093200121,,,29,http://www.yuseido.co.jp,,,,
402192,4093200022,福岡県,大野城市,のいえ大野城南,ノイエオオノジョウミナミ,地域密着型特定施設入居者生活介護（有料老人ホーム）,福岡県大野城市牛頸4丁目5番3号,,33.503973600000000,130.470588899999940,092-589-1820,092-589-1822,6290001042437,株式会社のいえ,4093200022,,,0,,,,,
402192,4093200105,福岡県,大野城市,ラ・ナシカ　おとがな,ラ・ナシカ　オトガナ,地域密着型特定施設入居者生活介護（有料老人ホーム）,福岡県大野城市乙金一丁目4番3号,,33.548661400000000,130.491206499999970,092-503-1177,092-503-1107,3290801004110,株式会社　シダー,4093200105,,,29,http://www.cedar-web.com,,,,
412074,4190700064,佐賀県,鹿島市,レジデンスゆうあい,レジデンスユウアイ,地域密着型特定施設入居者生活介護（有料老人ホーム）,佐賀県鹿島市大字高津原2962番地1,,33.104931900000000,130.084520500000050,0954－69－8315,0954－69－8316,,祐愛会,4190700064,,,27,http://www.yuaivillage.com,,,,
412066,4190600082,佐賀県,武雄市,介護付有料老人ホーム　ほのか,カイゴツキユウリョウロウジンホームホノカ,地域密着型特定施設入居者生活介護（有料老人ホーム）,佐賀県武雄市北方町大字大崎2367-3,,33.234654769144456,130.063476960774180,0954-36-6001,0954-36-6002,,株式会社　サンライズ,4190600082,,,0,http://3rise-group.com/,,,,
412066,4190600090,佐賀県,武雄市,株式会社　サンライズ　介護付有料老人ホーム　きらら,カブシキガイシャ　サンライズ　カイゴツキユウリョウロウジンホーム　キララ,地域密着型特定施設入居者生活介護（有料老人ホーム）,武雄市武雄町大字富岡9576番地1,,33.200500900000000,130.017389300000000,0954-20-1030,0954-20-1140,,株式会社　サンライズ　介護付有料老人ホーム　きらら,4190600090,,,23,http：/3rise-group.com/,,,,
432059,4390500116,熊本県,水俣市,尚光苑,ショウコウエン,地域密着型特定施設入居者生活介護（有料老人ホーム）,熊本県水俣市深川1020番地3,,32.180883946543110,130.446634875048830,0966－67－1085,0966－67－1084,,広徳会,4390500116,,,0,http://koutokukai.amsstudio.jp/,,,,
432067,4390600049,熊本県,玉名市,特定施設入居者介護たいめい苑,トクテイシセツニュウキョシャセイカツカイゴタイメイエン,地域密着型特定施設入居者生活介護（有料老人ホーム）,熊本県玉名市岱明町古閑402番地,,32.931570300000004,130.506084699999970,0968-57-1220,0968-57-1359,6330005004081,熊本東翔会,4390600049,,,0,http://ww7.tiki.ne.jp/~taimeien,,,,
432024,4390200188,熊本県,八代市,グッドライフ本町,グッドライフホンマチ,地域密着型特定施設入居者生活介護（有料老人ホーム）,八代市本町１丁目１－６０,,32.505806800000000,130.604554300000020,0965-30-8181,0965-30-8171,,グッドライフ本町,4390200188,,,0,http://www.goodlife-h.jp/,,,,
432121,4391200021,熊本県,上天草市,有料老人ホーム　シルバードリーム寿里,ユウリョウロウジンホーム　シルバードリームジュリ,地域密着型特定施設入居者生活介護（有料老人ホーム）,熊本県上天草市松島町阿村821-1,,32.518002700000000,130.447914800000030,0969-56-2828,0969-56-3830,2330001015581,株式会社　いるか,4391200021,,,24,,,,,
432121,4391200161,熊本県,上天草市,長寿の里　かおる,チョウジュノサト　カオル,地域密着型特定施設入居者生活介護（有料老人ホーム）,熊本県上天草市大矢野町中１１７７－１,,32.579277400000000,130.426123800000000,０９６４－５６－３００３,０９６４－５６－３００４,8330003008328,Ｋtwostyle合同会社,4391200161,,,24,,,,,
433489,4392300051,熊本県,美里町,コミュニティハウス　みんなの家,コミュニティハウス　ミンナノイエ,地域密着型特定施設入居者生活介護（有料老人ホーム）,熊本県下益城郡美里町土喰4番地,,32.617932000000000,130.866713200000050,0964-47-1118,0964-47-2233,,社会福祉法人　千寿会,4392300051,,,29,http://www.youkouen.com/,,,,
434248,4392700078,熊本県,小国町,リハセンターみどりの里,リハセンターミドリノサト,地域密着型特定施設入居者生活介護（有料老人ホーム）,熊本県阿蘇郡小国町宮原４２５番地５,,33.122194697531590,131.084794950331880,0967-46-6650,0967-46-6662,7330005005186,医療法人社団大徳会,4392700078,,,0,http://www.daitokukai.info/,,,,
432130,4371300171,熊本県,宇城市,グランドホーム　フォーシーズン,グランドホーム　フォーシーズン,地域密着型特定施設入居者生活介護（有料老人ホーム）,熊本県宇城市松橋町両仲間781-1,,32.633123700000000,130.698029000000020,0964-33-3141,0964-33-5171,7330001006584,株式会社　ラディカ,4371300171,,,18,http://fo-season.jp/,,,,
434825,4393000049,熊本県,芦北町,ゆうあいの家,ユウアイノイエ,地域密着型特定施設入居者生活介護（有料老人ホーム）,熊本県芦北郡芦北町大字芦北2324-1,,32.290958700000000,130.493755900000000,0966-68-3511,0966-68-3512,8330005006464,社会福祉法人志友会,4393000049,,,0,,,,,
435147,4393100187,熊本県,あさぎり町,ＪＡくま福祉の里木綿葉　別館　西棟,ジェイエイクマフクシノサトユウバベッカンニシトウ,地域密着型特定施設入居者生活介護（有料老人ホーム）,熊本県球磨郡あさぎり町須恵字丸尾1219-2,,32.267232800000000,130.900772800000030,0966-45-7777,0966-45-7771,,球磨地域農業協同組合,4393100187,,,10,,,,,
431044,4392300077,熊本県,熊本市南区,地域密着型特定施設入居者生活介護　彩,チイキミッチャクガタトクテイシセツニュウキョシャセイカツカイゴ　イロドリ,地域密着型特定施設入居者生活介護（有料老人ホーム）,熊本市南区富合町廻江５９９－１彩,彩,32.716702945112270,130.681969714155570,096-243-1013,096-243-1012,6330005002449,社会福祉法人　和創会,4392300077,,,10,e‐harukaze.com,,,,
431052,4372500787,熊本県,熊本市北区,グランドホーム　ひまわり,グランドホーム　ヒマワリ,地域密着型特定施設入居者生活介護（有料老人ホーム）,熊本県熊本市北区植木町山本907-1,,32.912990200000000,130.689075099999970,096-273-3939,096-273-6913,5330002019447,有限会社ひまわり,4372500787,,,10,http://www.himawari-kaigo.com/,,,,
442101,4491000016,大分県,杵築市,介護付有料老人ホームおおたの郷,カイゴツキユウリョウロウジンホームオオタノサト,地域密着型特定施設入居者生活介護（有料老人ホーム）,大分県杵築市大田石丸１３９２番地,,33.492804500000000,131.558980199999950,0978-52-2190,0978-52-2229,3320002016166,有限会社福祉総合ケアハウス,4491000016,,,0,http://ootanosato.jp/,,,,
442046,4490400134,大分県,日田市,地域密着型有料老人ホーム蹈青,チイキミッチャクガタユウリョウロウジンホームトウセイ,地域密着型特定施設入居者生活介護（有料老人ホーム）,大分県日田市南元町304番2,,33.313733400000000,130.940013300000030,0973-22-8808,0973-22-4000,,医療法人　秋水堂,4490400134,,,0,,,,,
442046,4490400183,大分県,日田市,地域密着型特定施設入居者生活介護　陽だまり,チイキミッチャクガタトクテイシセツニュウキョシャセイカツカイゴ　ヒダマリ,地域密着型特定施設入居者生活介護（有料老人ホーム）,大分県日田市大字渡里1017-3,,33.335552300000000,130.931561300000000,0973-28-6140,0973-28-6150,3320005006924,社会福祉法人慈愛会,4490400183,,,,,,,,
442046,4490400092,大分県,日田市,介護付有料老人ホーム　ケアビレッジ朋友,カイゴツキユウリョウロウジンホーム　ケアビレッジホウユウ,地域密着型特定施設入居者生活介護（有料老人ホーム）,大分県日田市城町1丁目3-19,,33.328248700000000,130.939901999999960,0973-27-6322,0973-27-6422,8320002019115,有限会社　介護サービス朋友,4490400092,,,0,http://www.houyou-hita.jp/,,,,
442071,4490700046,大分県,津久見市,介護付有料老人ホーム秋桜,カイゴツキユウリョウロウジンホームコスモス,地域密着型特定施設入居者生活介護（有料老人ホーム）,大分県津久見市徳浦本町12番20号,,33.092074900000000,131.847796900000050,0972-85-1165,0972-83-5787,4320205000536,介護付有料老人ホーム「秋桜」,4490700046,,,,https://www.i-kkan-ken.jp/,,,,
442071,4490700020,大分県,津久見市,地域密着型特定施設こころ,チイキミッチャクガタトクテイシセツココロ,地域密着型特定施設入居者生活介護（有料老人ホーム）,大分県津久見市大字津久見5988-1,,33.056764700000000,131.849283300000020,0972-82-3078,0972-82-3238,,株式会社　みかんの花,4490700020,,,25,http://mikan-cocoro.p-kit.com/,,,,
442089,4490800085,大分県,竹田市,ケアホーム五つの実,ケアホームイツツノミ,地域密着型特定施設入居者生活介護（有料老人ホーム）,竹田市会々2576番地1,,32.970439300000000,131.386786499999970,0974-63-9611,0974-63-9588,,健伸会,4490800085,,,0,,,,,
442127,4491200061,大分県,豊後大野市,ライフホームひさと,ライフホームヒサト,地域密着型特定施設入居者生活介護（有料老人ホーム）,大分県豊後大野市三重町内田3142番地1,,32.976822600000000,131.596096300000000,０９７４－２４－００６６,０９７４－２４－００６７,6320002018515,株式会社ケーシーシー,4491200061,,,0,http://www.kcc-fukushi.co.jp,,,,
442054,4490500214,大分県,佐伯市,地域密着型特定施設　蒲江やすらぎケアセンター,チイキミッチャクガタトクテイシセツ　カマエヤスラギケアセンター,地域密着型特定施設入居者生活介護（有料老人ホーム）,大分県佐伯市蒲江大字蒲江浦３９５１番地,,32.812075500000000,131.925074699999980,0972-25-6622,0972-25-6626,3320005005711,社会福祉法人正心会,4490500214,,,17,http://www.saiki.tv/~wkh8111,,,,
452041,4590400083,宮崎県,日南市,介護付有料老人ホーム春光苑,カイゴツキユウリョウロウジンホームシュンコウエン,地域密着型特定施設入居者生活介護（有料老人ホーム）,宮崎県日南市園田1丁目4-4,,31.590888372110516,131.398526335000040,0987273501,0987273502,6350005001102,医療法人春光会,4590400083,,,0,http://syunkoukai.com/syunkouen/,,,,
462039,4690300167,鹿児島県,鹿屋市,介護付有料老人ホーム秋桜苑,カイゴツキユウリョウロウジンホームコスモスエン,地域密着型特定施設入居者生活介護（有料老人ホーム）,鹿児島県鹿屋市串良町下小原3100-2,,31.396728900000000,130.931314299999940,0994-62-8855,0994-62-8866,3340005006534,社会福祉法人　以和貴会,4690300167,,,29,http://iwakikai.org,,,,
462039,4690300191,鹿児島県,鹿屋市,プライエボーリ優花里,プライエボーリユカリ,地域密着型特定施設入居者生活介護（有料老人ホーム）,鹿屋市花岡町6265番地,,31.415052300000000,130.772301200000010,0994-46-3001,0994-46-3622,8340005006554,社会福祉法人恵仁会,4690300191,,,0,:http://www.kanoya-choujuen.jp/,,,,
462080,4690800026,鹿児島県,出水市,介護付有料老人ホームいずみ,カイゴツキユウリョウロウジンホーム,地域密着型特定施設入居者生活介護（有料老人ホーム）,鹿児島県出水市境町1840番地1号,,32.166480900000020,130.360545199999930,0996-67-1015,0996-67-1031,4340002022145,一興商事有限会社,4690800026,,,0,http://ikkoushoji.com/,,,,
462179,4691600193,鹿児島県,曽於市,有料老人ホーム　龍樹,ユウリョウロウジンホーム　リュウジュ,地域密着型特定施設入居者生活介護（有料老人ホーム）,鹿児島県曽於市末吉町諏訪方1964番地3,,31.649315900000000,131.017685499999970,0986-79-1080,0986-79-1081,8340005007222,社会福祉法人笠木福祉会,4691600193,,,0,http://kasagi.pupu.jp/ryujyu/,,,,
462179,4691600128,鹿児島県,曽於市,有料老人ホーム　末吉まごころ園,ユウリョウロウジンホーム　スエヨシマゴコロエン,地域密着型特定施設入居者生活介護（有料老人ホーム）,鹿児島県曽於市末吉町二之方5380-2番地,,31.640488900000000,131.019085899999940,0986-36-7388,0986-76-5522,6340005007298,社会福祉法人　松山やっちく会,4691600128,,,10,http://www.yattikukai.com/,,,,
464686,4697000026,鹿児島県,大崎町,介護付き有料老人ホーム　エコルたちお野,カイゴツキユウリョウロウジンホーム　エコルタチオノ,地域密着型特定施設入居者生活介護（有料老人ホーム）,鹿児島県曽於郡大崎町野方1915,,31.470159900000000,130.919709499999950,099-471-0066,099-478-3100,,医療法人　玲心会,4697000026,,,18,http://www.reishinkai,,,,
465259,4698600030,鹿児島県,瀬戸内町,医療法人徳洲会加計呂麻徳洲会有料老人ホームゆうたけ,イリョウホウジントクシュウカイカケロマトクシュウカイユウリョウロウジンホームユウタケ,地域密着型特定施設入居者生活介護（有料老人ホーム）,大字瀬相７４７番地１,,28.121711600000000,129.246254899999940,０９９７－７５－０１１８,０９９７－７５－０１１５,1120005005403,医療法人徳洲会,4698600030,,,25,mytown.s500.jp/yuutake1/,,,,
465305,4699100014,鹿児島県,徳之島町,かいごつきゆうりょうろうじんほーむはくじゅえん,介護付有料老人ホーム　白寿苑,地域密着型特定施設入居者生活介護（有料老人ホーム）,鹿児島県大島郡徳之島町亀津字白久5350番地,,27.717489753525896,129.015219915943930,0997-81-1115,0997-83-3100,,株式会社　ヘルスネット徳洲会,4699100014,,,29,,,,,
465321,4699300028,鹿児島県,伊仙町,有料老人ホームさみどり苑,ユウリョウロウジンホームサミドリエン,地域密着型特定施設入居者生活介護（有料老人ホーム）,大島郡伊仙町伊仙3335-1,,27.676335800000004,128.930753800000050,0997-86-3360,0997-86-4659,,株式会社ヘルスネット徳洲会,4699300028,,,29,,,,,
465330,4699400018,鹿児島県,和泊町,㈱ヘルスネット　徳洲会　有料老人ホーム　しおほしの里,（カブシキガイシャ）ヘルスネット　トクシュウカイ　ユウリョウロウジンホーム　シオホシノサト,地域密着型特定施設入居者生活介護（有料老人ホーム）,鹿児島県大島郡和泊町国頭2300番地,,27.426711900000000,128.682996499999940,0997-84-3333,0997-84-3337,8340002012547,株式会社　ヘルスネット徳洲会,4699400018,,,29,sofia-international.jinndo.com/,,,,
462012,4690100062,鹿児島県,鹿児島市,有限会社　幸和,ユウゲンカイシャ　コウワ,地域密着型特定施設入居者生活介護（有料老人ホーム）,鹿児島市真砂本町6番17号,,31.556513400000000,130.551697900000020,099-253-8800,099-253-7577,,有限会社　幸和,4690100062,,,25,http://kouwagroup.com/kouwa,,,,
462217,4691700068,鹿児島県,志布志市,びろうの樹　山重,ビロウノキ　ヤマシゲ,地域密着型特定施設入居者生活介護（有料老人ホーム）,有明町山重10793-1,,31.524602500000018,130.984566299999980,099-475-1560,099-475-1570,,医療法人共生会,4691700068,,,20,yamasige@birounoki.com,,,,
462217,4691700027,鹿児島県,志布志市,有料老人ホーム　しおさい,ユウリョウロウジンホーム　シオサイ,地域密着型特定施設入居者生活介護（有料老人ホーム）,鹿児島県志布志市志布志町志布志二丁目28番13号,,31.473600100000000,131.099783399999980,０９９－４７２－８４８８,０９９－４７１－１２１８,2340005007277,社会福祉法人　橋友会,4691700027,,,20,http://www.sayuukai.or.jp/kyouyuukai/,,,,
465054,4698200021,鹿児島県,屋久島町,有限会社　岡村　ひまわりのお家,ユウゲンガイシャ　オカムラ　ヒマワリノオウチ,地域密着型特定施設入居者生活介護（有料老人ホーム）,鹿児島県熊毛郡屋久島町宮之浦2384-10有限会社　岡村　ひまわりのお家,有限会社　岡村　ひまわりのお家,30.419804300000000,130.572495099999970,0997-42-2855,0997-42-2856,,有限会社　岡村,4698200021,,,20,http:/www.himawarino-ouchi.com/,,,,
472018,4790100368,沖縄県,那覇市,介護付有料老人ホーム特定施設ひまわり,カイゴツキユウリョウロウジンホームトクテイシセツヒマワリ,地域密着型特定施設入居者生活介護（有料老人ホーム）,那覇市小禄1丁目2番21号,,26.195458700000000,127.677477700000050,098-851-3032,098-851-3033,,株式会社　E.T.S,4790100368,,,29,http://care-net.biz/47/himawari/,,,,
472018,4790100350,沖縄県,那覇市,介護付き有料老人ホーム,カイゴツキユウリョウロウジンホーム　アメクヒルトップナハ,地域密着型特定施設入居者生活介護（有料老人ホーム）,沖縄県那覇市天久１１２６番地,,26.230430005812774,127.684969869033830,098-868-2122,098-868-2123,,医療法人天仁会,4790100350,,,29,http://www.tjmc.or.jp,,,,
472018,4790100582,沖縄県,那覇市,介護付有料老人ホーム特定施設ひまわり,カイゴツキユウリョウロウジンホームトクテイシセツヒマワリ,地域密着型特定施設入居者生活介護（有料老人ホーム）,沖縄県那覇市小禄1丁目2番21号,,26.195444700000010,127.677460099999960,098-851-3032,098-851-3033,6360002008371,株式会社　りゅうせきケアプロ,4790100582,,,0,http://care-net.biz/47/himawari/,,,,
472077,4790700076,沖縄県,石垣市,介護付き有料老人ホーム　コーラルケア,カイゴツキユウリョウロウジンホーム　コーラルケア,地域密着型特定施設入居者生活介護（有料老人ホーム）,浜崎町3丁目3-9,,24.340327386123352,124.148437112897440,0980-87-5683,0980-87-5684,8360001017660,第一メディカルケア株式会社,4790700076,,,20,http://www.daiichi-mc.co.jp/,,,,
472085,4790800041,沖縄県,浦添市,介護付有料老人ホーム　恵泉浦添,カイゴツキユウリョウロウジンホーム　ケイセンウラソエ,地域密着型特定施設入居者生活介護（有料老人ホーム）,沖縄県浦添市城間4丁目6番9号,,26.257684400000000,127.713390300000010,098-878-2818,098-878-2925,6360002018049,有限会社アンデレ総業,4790800041,,,26,,,,,
472115,4790400214,沖縄県,沖縄市,地域密着型介護付き有料老人ホーム　たけぞの,チイキミッチャクガタカイゴツキユウリョウロウジンホーム　タケゾノ,地域密着型特定施設入居者生活介護（有料老人ホーム）,沖縄県沖縄市諸見里3丁目41番36号たけぞの,たけぞの,26.328356000000000,127.791471499999940,０９８－９２３－０５５１,０９８－９２３－０５５２,,医療法人光和会,4790400214,,,20,www.kouwakai.okinawa,,,,
472115,4790400222,沖縄県,沖縄市,地域密着型特定施設くしばる,チイキミッチャクガタトクテイシセツクシバル,地域密着型特定施設入居者生活介護（有料老人ホーム）,沖縄県沖縄市池原3-3-8,,26.386910000000000,127.827390899999950,098-937-1165,098-937-1213,2360005003407,医療法人信愛会,4790400222,,,,https://shinaikai.com,,,,
472115,4790400206,沖縄県,沖縄市,地域密着型特定施設入居者生活介護　シルバーハウスゆい花,チイキミッチャクガタトクテイシセツニュウキョシャセイカツカイゴ　シルバーハウスユイハナ,地域密着型特定施設入居者生活介護（有料老人ホーム）,沖縄県沖縄市園田2丁目32番17号,,26.326313300000000,127.799954000000070,098-933-8123,098-933-8129,,有限会社　ゆい花,4790400206,,,0,,,,,
473146,4791800040,沖縄県,金武町,介護付有料老人ホーム　あさひの家,カイゴツキユウリョウロウジンホーム　アサヒノイエ,地域密着型特定施設入居者生活介護（有料老人ホーム）,沖縄県国頭郡金武町字金武８１３０－１介護付有料老人ホーム　あさひの家,介護付有料老人ホーム　あさひの家,26.453414900000000,127.916459499999970,098-968-8161,098-923-4165,6360005003320,朝日福祉会,4791800040,,,0,http://asahihukusikai.jimdo.com,,,,
472158,4795600057,沖縄県,南城市,しらゆりの園地域密着型介護付有料老人ホームおおざと,シラユリノソノチイキミッチャクガタカイゴツキユウリョウロウジンホームオオザト,地域密着型特定施設入居者生活介護（有料老人ホーム）,沖縄県南城市大里字古堅822番地,,26.189313900000000,127.747685000000000,098-963-6145,098-945-3841,,社会福祉法人　立命会,4795600057,,,,http://www.sirayuri.or.jp,,,,
